name,type,latitude,longitude,province,city
Cerro Zapaleri,peak boundary_stone,-22.814085,-67.1804928,,
Cerro Nevado de Los Tambillos,peak,-28.9593686,-69.7550443,,
Grillos,peak,-27.1596805,-68.6338264,,
Co. Arrieros,peak,-27.150814,-68.6374313,,
Nevado Ojos del Salado,volcano,-27.1095372,-68.5414835,,
Cerro Colorado,peak,-28.3089572,-69.5146608,,
Cerro Rincón,peak,-24.0344,-67.3223085,,
Hito XV-11 A,boundary_stone,-27.1462916,-68.8168305,,
Hito XVI-5 A,boundary_stone,-25.4276695,-68.5864784,,
Nevado San Francisco,volcano,-26.9191726,-68.2632095,,
Cerro Puntiagudo y Lamas,peak,-27.1526342,-68.8069707,,
Volcán Fraile,volcano,-27.0485909,-68.3794588,,
Arrieros / Chullo Bayo,peak,-27.1364626,-68.6551124,,
Pedregoso,peak,-27.1037584,-68.6686737,,
Cerro Tridente,peak,-26.2871033,-68.5575358,,
Cerro Atalaya,peak,-25.2985069,-68.5457747,,
Cerro Solo,volcano,-27.104851,-68.7135202,,
Volcán Ata,volcano,-27.1788617,-68.5724949,,
Nevado Tres Cruces,volcano,-27.0988677,-68.7781902,,
Volcán Incahuasi,volcano,-27.03359,-68.2959916,,
Cumbre de la Línea,peak,-26.813873,-68.3479455,,
Sierra Nevada de Lagunas Bravas,peak,-26.4929356,-68.5873359,,
Cerro Vidal Gormaz,peak,-27.7952581,-69.0958197,,
Paso de la Laguna de la Overa III,saddle,-31.1444628,-70.4127503,,
Cerro Riscado,peak,-32.6575195,-70.1492771,,
Nevado Olivares,peak,-30.2985672,-69.9008855,,
Cerro Don Damasio,peak,-32.6447968,-70.1521329,,
Cerro Las Tórtolas,peak,-29.9393801,-69.9068522,,
Hito X-38,boundary_stone,-36.4094217,-70.889538,,
Cerro Beatriz,peak,-40.9039299,-71.8648247,,
Cerro Punta Arena,peak,-39.1649664,-71.4010081,,
Cerro Barrancas,peak,-36.1714645,-70.4471576,,
Paso Carirriñe,saddle,-39.7898093,-71.6817251,,
Cerro Nevado Cónico,peak,-37.3850766,-71.190986,,
Cerro Pirehueico,peak,-40.0498336,-71.682111,,
Cerro Cristales,peak,-36.1581498,-70.5724772,,
Cerro Punta Colorada,peak,-40.8803281,-71.8813862,,
Cerro Peñascoso,peak,-40.4098182,-71.6987137,,
Cerro Punta Negra,peak,-40.29886,-71.6808665,,
Cerro Bayo,peak,-38.5883883,-70.8316147,,
Cerro Mirador,peak,-40.6890681,-71.9205367,,
Hito X-41,boundary_stone,-36.4176787,-70.7081794,,
Cerro Pulul,peak,-38.1785648,-70.9951544,,
Cerro El Fin,peak,-37.5765827,-71.1272835,,
Cerro Tralihue,peak,-38.5093934,-70.8989543,,
Monte Aymond,volcano boundary_stone,-52.1516536,-69.4863161,,
Hito II-XI,boundary_stone,-52.1504426,-69.1901446,,
Hito II-XVIII,boundary_stone,-52.0007436,-69.9955041,,
Hito II-VI,boundary_stone,-52.2854896,-68.7096966,,
Hito II-III,boundary_stone,-52.329468,-68.5135517,,
Hito II-IV Monte Dinero,boundary_stone,-52.3251743,-68.5734718,,
Hito III-4 Diana Nº 2,boundary_stone,-51.91483,-71.9453386,,
Cerro Pietrobelli,peak,-50.5350692,-73.3574724,,
Cerro Torino Este,peak,-49.8616667,-73.5005556,,
Mojón B,boundary_stone,-46.5891698,-71.6619415,,
Hito VI-28 A,boundary_stone,-44.5498525,-71.098292,,
Hito VI-31,boundary_stone,-44.4653602,-71.1435513,,
Hito VI-23 Nacimiento Río Moro,boundary_stone,-44.7786099,-71.6048956,,
Cerro Acantilado Las Margaritas,peak,-45.6177096,-71.7726162,,
Paso Kozlowski,saddle,-44.9206767,-71.9485402,,
Hito VI-19 (36),boundary_stone,-45.1507014,-71.4591014,,
Cerro Ver,peak,-43.2044602,-71.732322,,
Cerro Aguja Sur,peak,-42.1622781,-71.8354368,,
Hito VII-2B BPL 2,boundary_stone,-43.8554014,-71.7082853,,
Cerro Mirador,peak,-41.5719951,-71.8500343,,
Cerro Verde,peak,-41.5518979,-71.8283446,,
Hito VII-4 F,boundary_stone,-43.5000364,-71.8723172,,
Cerro Guayaques,peak,-22.8982742,-67.5673859,,
Misión Fagnano,hostel,-54.5274159,-67.2301145,,
Palacio San José,museum,-32.4266368,-58.5238587,,Caseros
Puerto Valle,hotel,-27.6063257,-56.4348929,,
Cabañas San Miguel,hotel,-29.1848787,-67.4768834,,Chilecito
Termas de Reyes,hotel,-24.1710847,-65.4891749,,
El Páramo,ruins,-53.0692082,-68.2430584,,
Establecimiento Las Costas,hotel,-24.7719173,-65.4951507,,
Estancia L. Lorenzo,ruins,-49.0263539,-67.6010785,,
Esquina Diego A. Maradona,attraction,-34.6008201,-58.5182247,,
El Tren del Fin del Mundo,attraction,-54.8331906,-68.4237957,,
Museo Evita - Instituto Nacional Eva Perón De Investigaciones Históricas,museum,-34.5807452,-58.4147393,,Ciudad Autónoma de Buenos Aires
Museo Nacional Ferroviario,museum,-34.5898239,-58.3787619,,
República de Italia,memorial,-34.9107165,-57.9552532,,
El Faro de la Cultura - Monumento al Ingeniero,monument,-34.8973753,-57.9740016,,
Cerro Mercedario,peak,-31.9792688,-70.1130909,,
Monte Pissis,volcano,-27.7551789,-68.7992115,,
Cerro Bonete Chico,peak,-28.0188231,-68.7562866,,
Camping Municipal Piramides,camp_site,-42.5735943,-64.2793643,,
Portal del Sol,hotel,-31.4251727,-64.4939458,,
Oficina de Turismo,information,-28.5221741,-59.041606,,
Paso Pircas Negras,peak,-28.0123568,-69.2919177,,
Hombre Urbano,artwork,-31.4227794,-64.1726774,,
Monumento a Manuel Belgrano,monument,-31.4310608,-64.1688986,,
Monumento a Eva Perón,monument,-31.4319836,-64.169817,,
Basílica de Santo Domingo,attraction,-31.4152184,-64.1871977,,
Dorá,hotel,-38.0031508,-57.5429812,,
Astor,hotel,-38.0008788,-57.5426106,,
Mirante Foz do Iguaçu,viewpoint,-25.6870818,-54.4396479,,
Lobos Marinos,attraction,-38.0496339,-57.5333991,,
Torre Tanque,viewpoint,-25.6834068,-54.4461231,,
Mirador Salto Eva,viewpoint,-25.6860093,-54.446133,,
Salto Mbiguá,viewpoint,-25.6874518,-54.4453869,,
Mirador Dos Hermanas,viewpoint,-25.6836552,-54.4454639,,
Mirador Salto Chico,viewpoint,-25.6848549,-54.4454974,,
Nicolás Donato,memorial,-34.5318849,-58.731621,,
Hi! Patagonia,hostel,-42.7741392,-65.0280075,,
Salto Tabay,attraction,-26.9993903,-55.1778105,,Jardín América
Gruta India,cave_entrance,-26.7586574,-54.9234052,,
Salto Encantado,attraction,-27.0584774,-54.8280556,,Santo Encantado
Salto Capioví,attraction,-26.9246673,-55.0619434,,
Salto Tres de Mayo,attraction,-26.7591005,-54.923485,,Paraje Tres de Mayo
Punta del Canario,cape,-33.038178,-60.5576384,,
Punta Armado,cape,-32.8107359,-60.6901342,,
Monumento del Cristo Redentor,attraction  monument,-32.8252847,-70.0707525,,
Cerro Caracoles,peak,-32.8002976,-70.1080069,,
Cerro El Horno,peak,-35.0059157,-70.3643899,,
Morro del Atravieso,peak,-34.4492996,-70.0551612,,
Cerro Manchado,peak,-33.9628912,-69.8532465,,
Punta Portillo,peak,-33.9141721,-69.8757184,,
Cerro Punta Cuba,peak,-33.8609521,-69.8733073,,
Cerro Villagra,peak,-35.2027436,-70.4704714,,
Hito XI-25,boundary_stone,-35.2036798,-70.4820108,,
Volcán Peteroa,volcano,-35.2576188,-70.5797707,,
Refugio San Martín / Refugio Jakob,alpine_hut,-41.1867539,-71.5610164,,
Terraza Panorámica,viewpoint,-41.1446124,-71.3758014,,
Cerro Otto,peak,-41.1446179,-71.3759542,,
Pirámide del Pronunciamiento,monument,-32.4846568,-58.2321207,,
Pico Colina Sur,peak,-33.8980658,-69.8630364,,
Mirador Lago Mascardi,viewpoint,-41.3097031,-71.5908092,,
Pampa Linda,guest_house,-41.2307642,-71.7740556,,
Hotel Magal,hotel,-35.4881931,-62.9820673,,América
Txoko Maite,hotel,-35.4905508,-62.9793986,,América
Jardín Biológico,zoo,-35.508333,-62.9703514,,
Hostel Buena Vista,hostel,-31.7206552,-60.532279,,
El Pilar,hotel,-49.2359351,-72.9329027,,
Diente de Caballo,peak,-41.1799738,-71.4759032,,
Cerro Catedral Norte,peak,-41.1795674,-71.4908203,,
Punta Nevada,peak,-41.1628558,-71.4828983,,
Punta Princesa,peak,-41.1770555,-71.48404,,
El Ateneo Grand Splendid,attraction,-34.5959828,-58.3942623,,Ciudad Autónoma de Buenos Aires
Cerro Campanario,peak,-41.0757505,-71.4764209,,
Piedra del Cóndor,peak,-41.1572847,-71.4689064,,
Hito Ex Baliza Dungeness,boundary_stone,-52.394793,-68.4306299,,
Hito II-I Punta Dungeness,boundary_stone,-52.3864077,-68.4184119,,
Hito III-1 Diana Nº 4,boundary_stone,-51.9999464,-71.9226076,,
Campamento Río Frias Superior,camp_site,-41.1432109,-71.8037766,,
Campamento Río Alerce,camp_site,-41.1770138,-71.7903897,,
Cerro Bella Vista,peak,-41.1321835,-71.495714,,
Juan Pablo,peak,-41.1332178,-71.5211736,,
Cerro Negro,peak,-41.1397792,-71.5843814,,
Piedra del Fraile,camp_site,-49.2274353,-73.0136474,,
Mujer Urbana,artwork,-31.358142,-64.2398764,,
Iguazú Falls,attraction,-25.693905,-54.4365376,,
Volcán Llullaillaco,volcano,-24.7199556,-68.5368079,,
Cerro La Ramada,peak,-32.0830869,-70.0180854,,
Volcán Socompa,volcano,-24.396151,-68.2455227,,
Quemado,peak,-24.7594753,-66.4151888,,
Paso Icalma,saddle,-38.833619,-71.2680275,,
Hito I-XXIV,boundary_stone,-54.8086033,-68.595452,,
Cerro El Peñón,peak,-37.7574809,-71.1559981,,
Cerro Corrralito,peak,-37.9649152,-71.090287,,
Sierra Dorotea,peak,-51.5921498,-72.2900235,,
km 44,chalet,-31.1789281,-64.4791593,,
Piedra de Habsburgo,viewpoint,-41.1575286,-71.3884666,,
Oficina de Turismo,information,-43.0786993,-71.463722,,
Parque Nacional Los Alerces,information,-42.970918,-71.5808625,,
Pinturas Rupestre,archaeological_site,-42.8900215,-71.6053216,,
Sitio Divisadero,viewpoint,-42.8894548,-71.6052521,,
Monumento Héroes de Malvinas,memorial,-43.5356021,-71.4707922,,
Oficina de Turismo,information,-44.1880401,-71.3448256,,
Hito XVI-21,boundary_stone,-23.6945116,-67.212916,,
Cerro Archibarca,peak,-25.237685,-67.864494,,
Camping Los Sauces,camp_site,-28.1531409,-65.7934858,,
Hostería Cuesta El Portezuelo,hotel,-28.4893626,-65.6062901,,Cerro Ancasti
Hotel Colonial,hotel,-28.4678343,-65.7752828,,San Fernando del Valle de Catamarca
Hotel Shincal,hotel,-28.4748519,-65.7735503,,
Residencial Menem,motel,-28.4760719,-65.7754451,,
Hotel Casino Catamarca,hotel,-28.467623,-65.7850008,,San Fernando del Valle de Catamarca
Los Lapachos,hotel,-28.0545949,-56.0217395,,Gobernador Ingeniero Valentín Virasoro
Hotel Ardais,hotel,-28.048434,-56.0133346,,
Hotel Casino,hotel,-28.0519427,-56.0139029,,Gobernador Virasoro
A.C.A.,hotel,-28.5432257,-56.0333186,,Santo Tomé
Cruz conmemorativa del vuelo 571 de la Fuerza Aérea Uruguaya,memorial,-34.7649932,-70.28639,,
Galería de la Veneración,attraction,-27.0611288,-65.3983132,,
Hotel Famaillá,hotel,-27.0539653,-65.402748,,Famaillá
Información Turística,information,-28.1934687,-65.7709491,,
Radio Famaillá - LRK799,attraction,-27.0517281,-65.4012242,,
Garganta del Diablo,attraction,-25.6955939,-54.4363361,,
Alvear Palace Hotel,hotel,-34.5877471,-58.3887383,,Ciudad Autónoma de Buenos Aires
Centro de Atención al Turista: Casco Histórico,information,-34.6073979,-58.3750711,,Ciudad Autónoma de Buenos Aires
Centro de Informes – Oberá,information,-27.4854642,-55.1189979,,Oberá
Fuerte Independencia,monument,-37.3404661,-59.137942,,
Información Turística,information,-37.3423327,-59.1318942,,
Hotel Dior,hotel,-37.3278678,-59.135725,,
Hotel Benidorm,hotel,-32.9504104,-60.6383151,Santa Fe,Rosario
Hotel Plaza,hotel,-32.9494301,-60.6382994,Santa Fe,Rosario
Centro de Visitantes,information,-27.8916688,-55.345202,,
Ruinas Jesuíticas de Santa María la Mayor,attraction  archaeological_site,-27.8877085,-55.3448707,,
Cerro Monje,peak,-27.8245856,-55.0980738,,
Mirador Cacique Nicolás Ñeenguirú,viewpoint,-27.7666648,-55.0636957,,
El Rancho Grande,hostel,-27.5699996,-55.1596712,,Paraje Samambaya
Paseo Aventura,information,-27.5696953,-55.1616314,,
Salto Krysiuk,attraction,-27.5694413,-55.1615384,,Guaraní
Salto Berrondo,attraction,-27.4799373,-55.1963773,,Oberá
El Colono,camp_site,-27.6809367,-54.9986069,,
Salto Paca,attraction,-27.6870224,-55.0063777,,Mariano Necochea
Camping Municipal,camp_site,-27.7287728,-54.9118682,,Panambí
Mirador Barra machado,viewpoint,-27.5263093,-54.8011434,,
Hostel Sol,hostel,-34.6217029,-58.3817253,,
Cerro Amarillo,peak,-34.0987613,-69.8523426,,
Cerro Marmolejo,volcano,-33.7348162,-69.8780154,,
Cerro Pastén,peak,-33.6459195,-69.8789521,,
Cerro Quilpué,peak,-33.6184369,-69.8807937,,
Mirador de Piuquenes,peak,-33.6080427,-69.8754444,,
Cerro Pirámide,peak,-33.5431247,-69.8719974,,
Volcán Maipo,volcano,-34.164207,-69.8344052,,
Cerro Marmolejo Norte,peak,-33.7168588,-69.8642789,,
Hotel Bauen,hotel,-34.6051237,-58.3924631,,Ciudad Autónoma de Buenos Aires
Volcán Domuyo,volcano,-36.6365987,-70.4312667,,
Monumento Guardacostas,monument,-34.6114201,-58.358979,,
Milhouse,hostel,-34.6094666,-58.3800981,,Ciudad Autónoma de Buenos Aires
Sudamerika,hostel,-34.6094475,-58.379943,,Ciudad Autónoma de Buenos Aires
Centro de Informes - Puerto Iguazú,information,-25.5984763,-54.576164,,Puerto Iguazú
Cerro Borbarán,peak,-34.1070975,-69.5545633,,
Lagunitas,peak,-34.2295282,-69.5755059,,
Cerro de la Laguna,peak,-34.1108329,-69.6273193,,
Cerro Yeguas Muertas,peak,-33.5265143,-69.9626238,,
Cerro Trono,peak,-33.5072113,-69.8647339,,
Cerro Bello,peak,-33.5198857,-69.9330023,,
Cerro Cuerno Blanco,peak,-33.5139517,-69.9512352,,
Cerro Orientación,peak,-33.287578,-69.8007444,,
Nevado Sin Nombre,volcano,-33.4242432,-69.7966595,,
Punta Meier,peak,-33.4160764,-69.7982795,,
Salto Dos Hermanos,attraction,-27.3726066,-55.1838034,,Colonia Alberdi
Salto Tobogán,attraction,-27.372987,-55.1855834,,Colonia Alberdi
Azul Apart,hotel,-27.4779988,-55.1014262,,
Salto Dos Hermanas,attraction,-25.6840593,-54.4457652,,
Salto Álvar Núñez,attraction,-25.6837839,-54.4427837,,
Salto Dos Hermanas,attraction,-25.683846,-54.4457849,,
Salto Bernabé Méndez,attraction,-25.6869777,-54.4457515,,
Mirador Salto Bossetti,viewpoint,-25.6855491,-54.4459291,,
Cerro Parva del Inca,peak,-32.7614922,-70.1682468,,
Cerro Seler,peak,-34.7684579,-70.3093672,,
Puntilla II del Azufre,peak,-34.7872078,-70.3254903,,
Mirador,viewpoint,-25.1793161,-65.8164294,,
Hito XVI-31,boundary_stone,-23.0004359,-66.9905186,,
Hito X-48 Paso Laguna Negra,boundary_stone,-36.1098541,-70.4149859,,
Volcán Campanario,volcano,-35.923641,-70.367008,,
Cerro Las Águilas,peak,-36.9778467,-71.2223911,,
Cerro Matancilla,peak,-36.4364122,-70.8867294,,
Hito X-39,boundary_stone,-36.415175,-70.8535968,,
Risquería,peak,-37.5479883,-71.3322545,,
Hosteria Pirquitas,guest_house,-28.2789964,-65.7324575,,Villa Las Pirquitas
Hito XVI-4 A,boundary_stone,-25.5793551,-68.5293232,,
Cerro Agua de La Falda,peak,-25.5744391,-68.514951,,
Loma La Falda,peak,-25.5437894,-68.5373014,,
Cerro Entre Aguas,peak,-26.3421149,-68.6362453,,
Cerro El Manchado,peak,-26.3685717,-68.6110111,,
Cerro Pajonales,peak,-26.2231386,-68.6194225,,
Nevado León Muerto,peak,-26.0995699,-68.5323902,,
Cerro Aguas Blancas,peak,-25.7080995,-68.4789169,,
Cerro Gemelos o Dos Puntas,peak,-26.0317211,-68.4930582,,
Cerros Colorados,volcano,-26.1782199,-68.3810751,,
Cerro Bayo,peak,-25.414405,-68.5899532,,
Cerro Icalma,peak,-38.8138916,-71.2584919,,
Cerro Coipocahue,peak,-38.8274937,-71.2280836,,
Cerro Jaure o Vantril,peak,-38.3332658,-71.028306,,
Cerro Pino Solo,peak,-38.5174777,-70.8640748,,
Cerro Tralihué,peak,-38.5026726,-70.9105736,,
Cerro Codihue,peak,-38.4227976,-70.981282,,
Cerro Rahue,peak,-38.2499069,-71.0323075,,
Cerro Redondo,peak,-38.0738641,-71.0140693,,
Hito IX-35,boundary_stone,-38.1125768,-71.0130654,,
Hito IX-32 A,boundary_stone,-38.2616937,-71.0090885,,
Cerro Butahuau,peak,-38.2975529,-70.997504,,
Cerro Mesa,peak,-39.3168325,-71.314069,,
Cerro Cuernos del Chihuilhue Norte,peak,-40.1026784,-71.8091077,,
Cerro Huanquihue,volcano,-39.8862199,-71.5806049,,
Cerro Huecuifa,peak,-39.7766613,-71.6139078,,
Cerro Paimún,peak,-39.6779988,-71.6736379,,
Hito IX-3 A,boundary_stone,-39.678969,-71.686188,,
Cerro Queñi,peak,-40.2324369,-71.8162023,,
Cerro Punta Negra,peak,-40.2813834,-71.7008269,,
Cerro Camello,peak,-40.3031528,-71.7535085,,
Cerro Vichadero,peak,-41.0918286,-71.8489546,,
Cerro Esperanza,peak,-41.0335455,-71.8581636,,
Cerro Espinoza,peak,-40.9339327,-71.8668503,,
Molino Forclaz,museum,-32.2171967,-58.1866516,,
Segundo Balcón,viewpoint,-50.4692593,-73.033067,,
Primer Balcón,viewpoint,-50.4688008,-73.0321602,,
Cerro Mora,peak,-35.5216217,-70.3678984,,
Hito XI-13 A,boundary_stone,-35.5163298,-70.3888223,,
Volcán Azufre,volcano,-35.2727093,-70.5820129,,
La Cabaña Hostería,guest_house,-25.5967734,-54.583667,,Puerto Iguazú
Santa María de Iguazú,chalet,-25.617361,-54.5404076,,
Orquídeas Palace,hotel,-25.624544,-54.5505664,,Puerto Iguazú
Complejo Turistico Americano,hotel,-25.62413,-54.54911,,Puerto Iguazú
Holy Beer Hotel,hotel,-25.62267,-54.55012,,Puerto Iguazú
Hotel Bagu Cabañas del Leñador,chalet,-25.6194346,-54.5579243,,
Minas Wanda,attraction,-25.9572998,-54.5987183,,
Cerro Pirámide,peak,-40.5518872,-71.8888354,,
Cerro Laguna,peak,-40.5548333,-71.8583676,,
Cerro Cuerno,peak,-40.5149102,-71.8088013,,
Cerro Cacho,peak,-40.4965434,-71.8447513,,
Hito VII-4 A,boundary_stone,-43.5387046,-71.7766079,,
Hito VI-26 A,boundary_stone,-44.6063999,-71.1991393,,
Club de pesca Lobos,camp_site,-35.2770624,-59.1336779,,
Merlo,camp_site,-35.273124,-59.1272703,,
Apart de la Laguna,chalet,-35.2690371,-59.1272304,,
Cerro Plateado,peak,-30.1275498,-67.8163965,,
Carmen,hotel,-25.6220667,-54.5528128,,Puerto Iguazú
Exe Hotel Cataratas,hotel,-25.6164411,-54.5584079,,Puerto Iguazú
Cerro Pereda,peak,-25.3815924,-69.0393504,,
Cerro Daudet,peak,-50.775,-73.1025,,
Camping Las Pircas,camp_site,-28.1742092,-65.7921748,,
Cerro El Toro,peak,-29.1300549,-69.7871134,,
Camping El Portezuelo,camp_site,-28.4640384,-65.6331531,,
Hosteria,hotel,-27.8647362,-65.72696,,
Camping,picnic_site,-27.8842395,-65.7286705,,
Monumento a Eva Perón,monument,-32.9981248,-60.6203225,,
Residencial Miguelito,hotel,-27.0460385,-55.241362,,Jardín América
América,hotel,-27.037605,-55.2276494,,Jardín América
Residencial Brasilia,hotel,-27.0384095,-55.2272673,,Jardín América
Mirador Maestri,viewpoint,-49.3181982,-73.0017572,,
Mirador de las Águilas,viewpoint,-49.3503321,-72.8709879,,
Hotel Inti Huasi,hotel,-28.4687234,-65.7828458,,
Salvador Apart Hotel,hotel,-28.4593738,-65.7810995,,San Fernando del Valle de Catamarca
Residencial Tucumán,hotel,-28.473802,-65.7754535,,
Residencial Delgado,hotel,-28.469201,-65.7757263,,
Hotel Sol,hotel,-28.4752475,-65.7766226,,
Hotel Issis,hotel,-33.790097,-61.2084574,,
Hosteria La Perseverancia,hotel,-33.1363268,-66.5248954,,
Hosteria La Calera,hotel,-32.8774505,-66.8411265,,
Hotel Condado,hotel,-28.5475538,-56.0365194,,Santo Tomé
Municipal camping,camp_site,-28.5464668,-56.0296729,,
Hotel Alvear,hotel,-28.5460071,-56.04958,,Santo Tomé
Hosteria El Rodeo,hotel,-28.2238485,-65.8760904,,
Hosteria La Merced,hotel,-28.1573268,-65.6568062,,La Merced
Cabañas del Dique,hotel,-28.0689839,-65.5728178,,
Camping Martín Reta,camp_site,-38.8998413,-60.3467414,,
Hotel León,hotel,-34.5955878,-58.4123373,,Ciudad Autónoma de Buenos Aires
Hospedaje El Peregrino,hostel,-28.4694172,-65.7803728,,San Fernando del Valle de Catamarca
Salto Patricio,attraction,-25.684028,-53.8509795,,Comandante Andresito
Hotel Termas los Cardones,hotel,-27.4968832,-64.8601611,,
Hosteria ACA,hotel,-26.8505526,-65.7097966,,
Hotel Tafi,hotel,-26.8542539,-65.7107016,,Tafí del Valle
Museo Duende Tafi del Valle,museum,-26.8743701,-65.6799079,,
Los Sauces,hotel,-26.0728181,-65.977994,,Cafayate
Monumento al Che Guevara,memorial,-32.9692539,-60.6384434,,
La Horqueta,camp_site,-33.3141503,-60.7361596,,
El Calvario,wayside_cross,-28.4599709,-65.8425216,,
Hostería Schilling,hostel,-50.3395246,-72.2615045,,
Camping Charbonier,camp_site,-30.7790841,-64.5011929,,
El Cuarzo,viewpoint,-30.7914073,-64.4690324,,
Los Terrones,viewpoint,-30.7934607,-64.46868,,
Termas del Uritorco,attraction,-30.837521,-64.5051,,
Hotel Napoleon,hotel,-30.9824092,-64.0929361,,
Bungalow Cabañas,hotel,-27.5094295,-64.9252205,,
Cerro Uritorco,attraction peak,-30.8452593,-64.4770163,,
Complejo Turístico La Toma,camp_site,-30.8638606,-64.4935601,,
Zona de Acampe,camp_site,-30.888527,-64.4598372,,
Hotel Ruta40,hotel,-26.0726758,-65.9733551,,Cafayate
Hostal Cafayate,hotel,-26.0712261,-65.972956,,Cafayate
Cabañas Yamasu Huasi,hotel,-26.0718942,-65.9790167,,
Posada El Hospedaje,hotel,-26.0723867,-65.9736877,,
Hosteria ACA,hotel,-25.1230909,-66.1655039,,
Información Turística,information,-25.1196631,-66.1622162,,
Hosteria Llakta,hotel,-25.1191719,-66.1619515,,
Hostería Nevado de Cachi,hotel,-25.1196214,-66.161022,,
Cerro de los 7 Colores,attraction,-23.745922,-65.50321,,
Hotel de Turismo,hotel,-22.104236,-65.5977989,,La Quiaca
Portal del Santo,hotel,-26.0761051,-65.9741652,,
Comfort,hotel,-26.0753663,-65.9754544,,Cafayate
Asembal,hotel,-26.0711671,-65.9747313,,
Museo Arqueológico Jorge Saravia,museum,-27.2248503,-66.8351443,,
Termas de la Quebrada,attraction,-27.2133861,-66.865885,,
Pircas Negras,hotel,-29.3337864,-68.2261827,,Villa Unión
Hospedaje Mari Perez,hostel,-29.1630199,-67.4893816,,
Calendario Incaico,attraction,-29.1203388,-67.4740541,,
Entrada a Tamberias del Inca,attraction,-29.1500512,-67.5079795,,
Hospedaje Doña Gringa,hotel,-29.3133112,-68.2289747,,
Cabañas - Bodega Haras San Jose,attraction,-29.296837,-68.2315592,,
Por aqui pasó Dakar2009,attraction,-27.6922031,-67.6081198,,
Termas de Fiambalá,picnic_site,-27.7423766,-67.5506701,,Fiambalá
Refugio N° 1 Gallina Muerte,wilderness_hut,-27.7678809,-68.0118535,,
Toro,camp_site,-49.3851691,-73.0404989,,
Poincenot,camp_site,-49.2812284,-72.9609115,,
Laguna Capri,viewpoint,-49.3028536,-72.929679,,
Apart Hotel CyC,hotel,-30.6294557,-67.4744883,,
Zona de Picnic,picnic_site,-28.1837804,-65.791722,,
Yapura - Habitacion con baño para alquilar,hostel,-28.1623803,-65.7929883,,
Cuchilla del Aguila,peak,-37.6074894,-59.416255,,
El Sombrerito,peak,-37.5999159,-59.4164481,,
Residencial Doña Pocha,hostel,-27.6796655,-67.6170779,,
Zona de Espectadores - Dakar 2010,attraction,-27.6895801,-67.6120151,,
Estancia El Cencerro,guest_house,-34.3091759,-59.109461,,Capilla del Señor
Olleros 3000,guest_house,-34.5764463,-58.4472986,,Ciudad Autónoma de Buenos Aires
Bloomers B&B,guest_house,-24.7885294,-65.4055949,,Salta
Hosteria Alta Vista,hotel,-50.4669497,-72.6092271,,
Hotel Fenicia,hotel,-33.895142,-60.5653777,,
Refugio del Chacho,picnic_site,-28.1553394,-65.7949184,,
Punta Quilla,viewpoint,-50.1176735,-68.4060326,,
Museo de Física,museum,-34.9078362,-57.9431635,,La Plata
Hotel Empleados Central Nuclear Embalse,hotel,-32.207226,-64.4094889,,
Hotel y Spa Howard Johnson,hotel,-31.9931082,-64.5580254,,Villa General Belgrano
Asadores,picnic_site,-31.9841587,-64.5594688,,
Playa Palace,hotel,-36.6121979,-56.6860908,,
Terrazas al Mar,hotel,-36.6056993,-56.686615,,
Circuito Hotelero Embalse,attraction,-32.2092985,-64.424987,,
Che Salguero,hostel,-31.4251805,-64.1790169,,Córdoba
Luz y Fuerza,camp_site,-42.782981,-64.995552,,
Ecocentro,museum,-42.7822677,-64.9958574,,Puerto Madryn
Los Molles,hotel,-35.1659918,-69.9391642,,
Camping Das Neves,camp_site,-27.9558805,-55.7181668,,Apóstoles
Camping Club Apostoles,camp_site,-27.90916,-55.72635,,
Club Unión,camp_site,-27.9107147,-55.7605667,,Apóstoles
La Granja de Casiano,camp_site,-28.0719194,-55.6691945,,Azara
Camping Municipal Paso Carretas,camp_site,-28.0915142,-55.6901132,,
Camping Municipal El Persiguero,camp_site,-27.9671782,-55.4495626,,Concepción de la Sierra
Camping Balneario Bonpland,camp_site,-27.4833178,-55.4497753,,Bonpland
Camping Municipal de San Martín,camp_site,-27.465819,-55.3365896,,
Camping La Boca,camp_site,-27.3096067,-55.5856796,,San Ignacio
Campamento Educativo San Ignacio,camp_site,-27.28845,-55.53012,,
Camping Club de Río,camp_site,-27.2787757,-55.5725718,,San Ignacio
Camping Privado Osununú,camp_site,-27.27927,-55.5782901,,
Camping Municipal Curupayty,camp_site,-27.13907,-55.51821,,Corpus Christi
Camping Isla Pindo-I,camp_site,-27.1120501,-55.5557869,,
Camping Paraje Los Indios,camp_site,-27.4021166,-55.2027679,,Oberà
Camping Maksy´s,camp_site,-27.4530502,-55.1756088,,
Camping El Portal de las Sierras,camp_site,-27.3334732,-55.2361143,,Gobernador Roca
Complejo Recreativo El Chapá,camp_site,-27.3345833,-55.2359167,,Colonia Alberdi
Camping Los Cardenales,camp_site,-27.6212945,-55.3107188,,
Camping Tío Corazón,camp_site,-27.6325127,-55.29591,,
Camping Olaf,camp_site,-27.622145,-55.3084586,,
Camping Tante Paula,camp_site,-27.6357529,-55.345676,,
Camping Arroyo Mártires,camp_site,-27.5895098,-55.4287834,,
Zona de Acampe-Cerro Corá,camp_site,-27.51108,-55.60861,,
Camping Parque Provincial Profundidad,camp_site,-27.5581565,-55.7093362,,
Camping Centro Turístico Urunday Tour,camp_site,-27.55648,-55.72127,,Profundidad
Camping Balneario Municipal Candelaria,camp_site,-27.48603,-55.7400201,,
Camping UPCN,camp_site,-27.48361,-55.73951,,
Camping El Viejo Puente,camp_site,-27.4680555,-55.0375001,,Campo Ramón
Complejo Turístico Brisas del Salto,camp_site,-27.4063876,-55.0148271,,Campo Ramón
Camping Cachofre,camp_site,-27.3701668,-55.0458753,,
Camping El Bonito,camp_site,-27.4553133,-54.9297427,,Campo Ramón
Camping Municipal Arroyo El Torto,camp_site,-27.3809306,-54.8213973,,
Camping privado de EMSA,camp_site,-27.2417781,-55.0058275,,
Camping Don Juan,camp_site,-27.2137028,-54.9966224,,Campo Grande
Camping Los Primos,camp_site,-27.1950172,-54.9550272,,
Parque Ecológico y Camping Municipal del Valle del Cuña Pirú,camp_site,-27.08812,-54.95254,,Aristóbulo del Valle
Camping Municipal Ruiz de Montoya,camp_site,-27.0385556,-55.037639,,
Camping La Pasarela,camp_site,-27.0415366,-55.0311945,,
Camping Los Tres Marinos,camp_site,-27.0208334,-54.6573055,,Dos de Mayo
Camping Alvarenga,camp_site,-27.0354647,-54.6762867,,
Camping Maruñak,camp_site,-27.0659167,-54.7504167,,Salto Encantado
Complejo Don Mario,camp_site,-27.0874673,-54.7896853,,
Camping Elefante Blanco,camp_site,-27.1135235,-54.7482849,,
Camping Salto Piedras Blancas,camp_site,-27.114064,-54.8111528,,Aristóbulo del Valle
Complejo El Jagüel,camp_site,-27.0951466,-54.8635913,,
Camping El Paraiso-Ituzaingo,camp_site,-27.5047223,-56.5411112,,
Camping Santa Tecla,camp_site,-27.6081347,-56.379157,,
Camping Baden Baden,chalet,-27.05489,-55.25846,,Jardín América
Camping Paraíso Lodge,camp_site,-27.0091701,-55.17569,,Puerto Leoni
Camping Municipal Salto Tabay,camp_site,-27.0002498,-55.1790555,,Jardín América
Camping Parque Natural Municipal Salto Capioví,camp_site,-26.9252791,-55.0620139,,Capioví
Camping JC,camp_site,-26.9415481,-55.0533255,,Capioví
Camping Club de Pesca,camp_site,-26.7910761,-55.0142196,,Puerto Rico
Camping Gruta India,camp_site,-26.75926,-54.92415,,Paraje Tres de Mayo
Camping Municipal Garuhapé,picnic_site,-26.8157299,-54.9470603,,
Camping Don Nino,camp_site,-26.8306243,-54.937314,,Garuhapé
Camping Paranay - Guazú,camp_site,-26.6876606,-54.8085506,,El Alcazar
Camping Ecoturismo La Misionerita,camp_site,-26.6574757,-54.7548898,,
Camping Parador Los Chila,camp_site,-26.6054183,-54.7344456,,
Comlejo Turístico Camping Itá- Porá,camp_site,-26.5164712,-54.7004984,,Montecarlo
Camping Piray Jungle,camp_site,-26.4808091,-54.6580046,,
Complejo Ysyry,hotel,-26.3490684,-54.6183181,,Colonia Victoria
Camping La Colina,camp_site,-26.4178687,-54.665094,,Eldorado
Camping Municipal El Dorado,camp_site,-26.40959,-54.69033,,
Cueva Miní Lodge,chalet,-26.3722773,-54.6601283,,
Camping Gran Bal Park Don Leandro,camp_site,-26.5974428,-54.7043497,,
Camping Panambi,camp_site,-25.9684809,-54.5847484,,Wanda
Camping Municipal Lago Urugua-í,camp_site,-25.899066,-54.5547461,,
Camping Alto Paraná,camp_site,-25.8558694,-54.5480056,,
Camping El Ñandú,camp_site,-25.7030701,-54.42603,,
Camping Salto Escondido,camp_site,-25.6700278,-53.9341639,,
Bed & Breakfast La Casa de Titi,hotel,-34.4921422,-58.5042976,,
Hosteria Bosque de Bohemia,hotel,-34.3105867,-58.5892501,,
Salon La Casona y otros eventos,attraction,-28.1706952,-65.7903171,,
"Canyon del Atuel, norte",viewpoint,-35.0207433,-68.6716295,,
Naindo Hotel,hotel,-29.4131152,-66.8547802,,
Avistaje de Toninas,attraction,-43.3399081,-65.0587427,,
Cabo Dos Bahías,viewpoint,-44.9324651,-65.549916,,
Pingüinera,viewpoint,-44.9159445,-65.5482706,,
complejo náutico Caleta Sara,camp_site,-44.903432,-65.5763786,,
Playa Elola,camp_site,-44.838257,-65.7244449,,
Indalo Inn.,hotel,-44.7982259,-65.7091985,,
Museo del Monumento Nacional Bosques Petrificados,museum,-47.6651087,-67.9942588,,
Camping Isla Pavón,camp_site,-50.0036815,-68.933996,,
Pinguinera de Monte Leon,viewpoint,-50.3612756,-68.9041424,,
cabeza del León,viewpoint,-50.3588417,-68.881619,,
Mina 1,camp_site,-51.5728206,-72.3478227,,
Vulcanche,hostel,-40.6605413,-71.3901081,,
Camping Lago Roca,camp_site,-50.5441544,-72.8186705,,
Pinturas Rupestres,archaeological_site,-50.543157,-72.8034665,,
Balcón norte,viewpoint,-50.4682619,-73.0335881,,
Balcón Inferior,viewpoint,-50.4727832,-73.0337578,,
Los Dos Pinos,camp_site,-50.3340851,-72.265337,,
Hostería La Raclette,hotel,-40.1611093,-71.3500052,,
Ushuaia Cabañas Hannus,chalet,-54.8116373,-68.3458446,,
Camping Gerald,camp_site,-46.480524,-67.5249657,,
La Loberia,viewpoint,-49.1595797,-67.6193651,,
Punta Cuevas,cape,-49.2162223,-67.6684786,,
Segundo Cabo,cape,-49.1995381,-67.6611889,,
Playa La Mina,beach,-49.1545659,-67.6355392,,
Playa Grande,beach,-49.140114,-67.6372234,,
Punta Azconape,cape,-49.2523482,-67.6353575,,
Punta Gallows,cape,-49.308423,-67.6989569,,
Playa Los Instalados,beach,-49.3565017,-67.6337892,,
Ameghino,hotel,-49.3118678,-67.7203175,,
Miramar,hotel,-49.3115559,-67.7169431,,
Costanera Hotel,hotel,-49.3106707,-67.7171713,,
Posada de Drake,hotel,-49.3111695,-67.7221207,,Puerto San Julián
Ocean,hotel,-49.3081028,-67.7277054,,
Bahía,hotel,-49.3074199,-67.7295874,,
Sada,hotel,-49.3064467,-67.7301868,,
info Turismo,information,-47.7508956,-65.9022107,,
Las Bandurrias,hotel,-47.7525328,-65.9034097,,
Los Acantilados,hotel,-47.7541016,-65.9060544,,
Apart Hotel com Al,hotel,-47.7509998,-65.9020685,,
Ingreso Parque Nacional Los Glaciares,attraction,-50.4265147,-72.7520385,,
Friz Roy Inn,hotel,-49.3263548,-72.8884365,,
Bajo Caracoles,hotel,-47.4442463,-70.9265622,,
Hospedaje De Paso,hotel,-35.2738249,-59.7654692,,norberto de la riestra
Observatorio astronómico,attraction,-34.9090743,-57.9328839,,
Cueva de las Manos,attraction cave_entrance archaeological_site,-47.1552731,-70.6559679,,
Alumbrera,volcano,-26.1479361,-67.3849535,,
Antofagasta de la Sierra,volcano,-26.1287033,-67.411173,,
Cerro Brajma,peak,-22.7221139,-67.12775,,
Cabañas Arco Iris,hostel,-49.3314551,-72.8835832,,
La Cima,hostel,-49.3308766,-72.8837656,,
Kau Si Aike,hostel,-49.330651,-72.8842269,,
Departamentos Sur Azul,apartment,-49.3326634,-72.8844802,,El Chaltén
Senderos,hotel,-49.3330334,-72.883327,,
Cóndor de los Andes,hostel,-49.3319856,-72.88361,,
Cabañas Río de las Vueltas,chalet,-49.3302927,-72.8845381,,
Cabañas Los Milenarios,chalet,-49.32943,-72.8840549,,
Aylen Aike,hostel,-49.329091,-72.8839802,,
Las Piedras,hotel,-49.3305413,-72.8835951,,El Chaltén
Nothofagus,guest_house,-49.3328753,-72.8894666,,
Los Ñires,hostel,-49.3328292,-72.8886671,,
Lago del Desierto,chalet,-49.3324266,-72.8882981,,
Eukel,chalet,-49.3320059,-72.8894605,,
Laguna Toro,chalet,-49.3325589,-72.8907394,,
La Nativa,hostel,-49.3331674,-72.8876319,,
Kaulem,hostel,-49.3304778,-72.8917218,,
La Loma,chalet,-49.330149,-72.8911482,,
Mi Rincón,guest_house,-49.3315959,-72.8896074,,
El Paraíso,hostel,-49.3312616,-72.8891823,,
Posada Cerro Solo,guest_house,-49.3310845,-72.8897764,,
Glaciar Marconi,hostel,-49.3311997,-72.8879507,,
Cumbres Nevadas,hotel,-49.330859,-72.8887834,,
El Puesto Sur,chalet,-49.3304809,-72.8885168,,El Chaltén
"Cartel ""El Chalten Bienvenidos""",artwork,-49.3335211,-72.8838648,,
El Relincho,chalet,-49.3254568,-72.8906111,,
Austral,chalet,-49.3247734,-72.8908161,,El Chaltén
El Mochilero,camp_site,-49.3243994,-72.8895944,,
El Refugio,camp_site,-49.3248563,-72.8902587,,
Cabañas Anita's House,chalet,-49.3281607,-72.8878944,,
Lo de Trivi,hostel,-49.3246084,-72.8915972,,El Chaltén
Rivendel,chalet,-49.3253007,-72.8919722,,El Chaltén
Posada Altas Cumbres,hostel,-49.3257552,-72.8929995,,
El Puma,hostel,-49.3269632,-72.8924059,,
Kalenshen,hostel,-49.3269256,-72.8908341,,
Hem Herhu,chalet,-49.3222049,-72.8962197,,El Chaltén
Lo de Tomy,hotel,-49.3260059,-72.8913454,,
Rancho Grande,hostel,-49.3245179,-72.892648,,El Chaltén
Koonek,hostel,-49.3247902,-72.894085,,
La Guanaca,guest_house,-49.3316137,-72.8881779,,
Ruinas de la chimenea de la fábrica Ctibor,ruins,-34.8930855,-57.9981809,,
Monumento a los Caídos en Malvinas,attraction  memorial,-34.5939289,-58.3751497,,
Monumento al General San Martín,monument,-34.594978,-58.3771048,,
Camping Cascallares,camp_site,-34.6833547,-58.8214801,,
Camping Mutual de Camioneros,camp_site,-34.8307564,-58.2800344,,
Cerro Domo Blanco,peak,-49.2671804,-73.1053372,,
Cerro Torre,peak,-49.2919372,-73.0992311,,
Adela,peak,-49.3048786,-73.102918,,
Cerro Standhardt,peak,-49.286722,-73.0964752,,
Torre Egger,peak,-49.2908867,-73.0991315,,
Cerro Doblado,peak,-49.3253186,-73.1020094,,
Adela Sur,peak,-49.3120037,-73.0954307,,
Cerro Solo,peak,-49.3429072,-73.0277137,,
Loma de las Pizarras,peak,-49.2977534,-72.9825253,,
Techado Negro,peak,-49.3003347,-73.0132114,,
Aguja Poincenot,peak,-49.2804529,-73.039788,,
Aguja Saint-Exupery,peak,-49.2881803,-73.038817,,
Cerro Madsen,peak,-49.269391,-72.99246,,
Punta Velluda,peak,-49.2697723,-73.0149018,,
Polo,peak,-49.2570247,-72.9278294,,
León,peak,-49.309205,-72.9250265,,
Aguja Mermoz,peak,-49.2636221,-73.0371209,,
Aguja Guillaumet,peak,-49.2609019,-73.0329824,,
Cerro Eléctrico NE,peak,-49.2507534,-73.0041147,,
Aguja Rafael Juarez,peak,-49.2844748,-73.0397801,,
Aguja Val de Biois,peak,-49.2667965,-73.0406745,,
Cerro Eléctrico oeste,peak,-49.240923,-73.0419012,,
Cerro Ñato,peak,-49.3184776,-73.0941346,,
Adela Norte,peak,-49.2986211,-73.1040253,,
El Mocho,peak,-49.2929144,-73.0792082,,
Punta Herron,peak,-49.288526,-73.0982957,,
Cerro Pirámide,peak,-49.0677306,-73.2665125,,
Estación Gobernador Andonaegui,ruins,-34.1752743,-59.3126151,,
Ibis,hotel,-34.6103171,-58.3888086,,
Hostería La Pome,hotel,-26.4785298,-67.2612135,,
Volcán Planchón,volcano,-35.2234548,-70.567716,,
Hito XI-23,boundary_stone,-35.1989707,-70.5354508,,
Paso Vergara,saddle,-35.2054098,-70.5202505,,
Hito XI-18 Paso del Fierro,boundary_stone,-35.3785436,-70.4339343,,
Club Español,attraction,-34.6103651,-58.3804301,,Ciudad Autónoma de Buenos Aires
Matias,artwork,-34.6141886,-58.3706403,,Ciudad Autónoma de Buenos Aires
Homenaje al Bombero Voluntario,memorial,-40.794567,-62.9799895,,Carmen de Patagones
Mirador Arrayán,viewpoint,-40.1670142,-71.352254,,
Paihuén Villa de Montaña,chalet,-40.1756048,-71.3943165,,
Camping La Islita,camp_site,-40.1542646,-71.3970688,,
Monumento al General San Martín,artwork  monument;memorial,-40.1568723,-71.3525548,,
Cristo de La Cruz Negra,wayside_cross,-28.4489682,-65.7493136,,
Pachonga,hostel,-31.4268039,-64.18243,,
Hosteria Alijilan,hotel,-28.1705457,-65.4912329,,
Museo de la Reconquista,museum,-34.4164738,-58.5895392,,Tigre
Museo Municipal,museum,-34.3451758,-58.7961584,,
Museo de Arte Hispanoamericano,museum,-34.5907972,-58.3801161,,Ciudad Autónoma de Buenos Aires
Museo de Arte Popular José Hernández,museum,-34.5797076,-58.4049882,,Ciudad Autónoma de Buenos Aires
Hotel Urban Suites Recoleta,hotel,-34.5890174,-58.3925644,,
Trip Recoleta Hostel,hostel,-34.5881603,-58.3950618,,
Hotel Recoleta,hotel,-34.5839953,-58.399794,,
Chateau Blend Hotel Boutique,hotel,-34.5843575,-58.3993756,,
Hotel Madero,hotel,-34.6168214,-58.3624565,,
Cooperativa 30 de Agosto,hotel,-36.2793272,-62.5455879,,Treinta de Agosto
Hosteria Concepción,hotel,-28.6826369,-66.0662293,,
Museo Histórico Regional Almirante Brown,museum,-34.712137,-58.2847558,,Bernal
Museo Histórico Nacional del Cabildo y de la Revolución de Mayo,museum,-34.6087695,-58.3738806,,Ciudad Autónoma de Buenos Aires
Bandera de la Ciudad de Buenos Aires,attraction,-34.6041576,-58.381565,,
Molino San Francisco,museum,-29.1631472,-67.5013252,,Chilecito
"Estación II ""El Durazno"" - Cablecarril Mina La Mejicana",attraction,-29.1330749,-67.565508,,
Chaviquil del Famatina,hostel,-29.1548679,-67.4923497,,
Hotel Bristol,hotel,-34.6052017,-58.3822929,,
Mirador Río de las Vueltas,viewpoint,-49.3145563,-72.9013031,,
Mirador Fitz Roy,viewpoint,-49.300226,-72.9200669,,
Mirador Cerro Torre,viewpoint,-49.3327773,-72.9270997,,
Loma del Pliegue Tumbado,peak,-49.3594424,-72.9675211,,
Hosteria Posta Sur,hotel,-50.3356348,-72.2558164,,
Nocenta Pisetta,museum,-29.1879892,-67.4658774,,
La Posta de Uribe,hotel,-35.1239048,-58.8943921,,
Museo Regional de Maquinas y Herramientas Agrícolas,museum,-35.1153639,-58.898733,,
Hotel Libertad ****,hotel,-35.0473218,-58.7690974,,
Archivo Histórico Lucio García Ledesma,museum,-35.0558033,-58.7620318,,
Hotel y Spa Cañuelas,hotel,-35.055701,-58.7573172,,Cañuelas
Ex Finca de Maccicotte,attraction,-35.0552212,-58.7576767,,
Los 5 Hermanos,hotel,-35.0474786,-58.769357,,
Mirador Cascada Margarita,viewpoint,-49.3361781,-72.9043419,,
Area de Pic-nic Mitre zona B,picnic_site,-50.4499957,-72.7754693,,
Mirador de los Suspiros,viewpoint,-50.4860236,-72.9661906,,
Mirador 1,viewpoint,-50.4715296,-73.0332321,,
Mirador 2,viewpoint,-50.471919,-73.0334159,,
Mirador 3,viewpoint,-50.4722387,-73.0335446,,
Aruba,hotel,-31.423605,-64.189386,,
Ardent,hotel,-31.42195,-64.180299,,
Del boulevard,hotel,-31.421919,-64.183903,,
Viena,hotel,-31.423692,-64.191107,,
Munich,hotel,-31.423201,-64.189596,,
Diego de Alfaro,museum,-27.9144059,-55.7537042,,Apóstoles
Mirador Lapataia,viewpoint,-54.8531188,-68.5783478,,
Alma Guacha,hotel,-30.9889177,-64.5336656,,
Parador,picnic_site,-28.4812168,-65.9501418,,
El Peñón,viewpoint,-25.684546,-54.4424529,,
Faro Año Nuevo,yes,-54.6580367,-64.132323,,
Plaza Hotel,hotel,-36.3157155,-57.6762193,,
Hotel Avenida,hotel,-36.3189431,-57.6831401,,
Arianos Apart Hotel,hotel,-36.3076941,-57.6799081,,
Monumento a los Caidos,attraction  monument,-38.6894904,-62.272495,,
Sociedad Rural Argentina,attraction,-31.6326992,-60.712411,,
Parque Juan de Garay,picnic_site,-31.6359834,-60.7200393,,
Camping de los Municipales,camp_site,-26.6288523,-54.1247852,,
American,hotel,-26.6235364,-54.115392,,San Pedro
Complejo Turístico Farelluk,chalet,-26.6025594,-54.112108,,San Pedro
Camping Uray Mayú,camp_site,-31.7318897,-64.4468187,,
Plaza Hotel,hotel,-31.9449372,-65.1893854,,
La Torre de la Cascada,chalet,-40.8271249,-71.5701394,,
Cabañas Geute Ketel,chalet,-46.5652473,-71.6307923,,
Cabana Dulce Daniela,hotel,-40.3132006,-71.3808258,,
Morada,hostel,-31.4080307,-64.1890791,,
Pozo de las Ánimas,viewpoint,-35.1896295,-70.0016467,,
Laguna de la Niña Encantada,attraction,-35.1602528,-69.8692284,,
Mainumby,hotel,-30.761363,-57.9816539,,Chajarí
Paudimar,hostel,-25.5990424,-54.5243252,,Foz do Iguaçu
Camping la toma,picnic_site,-30.864544,-64.493222,,
Murga del Monte,attraction,-27.4933894,-55.1183358,,Oberá
Exe Hotel Colón,hotel,-34.6023098,-58.3808927,,Ciudad Autónoma de Buenos Aires
Vito I,hotel,-27.4858361,-55.1200382,,Oberá
Cuatro Pinos,hotel,-27.4854375,-55.120613,,Oberá
Club Asociación de Fomento Amigos de la ciudad jardin Lomas del Palomar,camp_site,-34.5992075,-58.5857107,,
Panoramic Grand,hotel,-25.5935305,-54.5753013,,Puerto Iguazú
Hotel de la Flor,hotel,-34.3487351,-58.7979926,,
Predio Fiesta Nacional de la Flor,attraction,-34.3388112,-58.7931454,,
Sans Souci,hotel,-34.3520752,-58.7968614,,
Hostel Park Iguazú,hostel,-25.5989154,-54.5678757,,Puerto Iguazú
Zona de Picnic,picnic_site,-31.9604092,-64.7141377,,
Museo de Morón,museum,-34.648656,-58.6243426,,Morón
Tupasy Iguazú Apart,hotel,-25.6007234,-54.5758056,,Puerto Iguazú
Saint George,hotel,-25.5991683,-54.570726,,Puerto Iguazú
Mastil. Final del murallón,viewpoint,-28.0668026,-65.5751415,,
Vertedero,viewpoint,-28.0659533,-65.5753222,,
El Capricho,guest_house,-25.3318746,-66.2440046,,Seclantás
La Rueda,guest_house,-25.3314847,-66.243809,,Seclantás
Camping Municipal,camp_site,-25.3311881,-66.2447199,,
Mirador sobre la laguna,viewpoint,-25.3204057,-66.3613585,,
Hotel Francia,hotel,-26.8324319,-65.2039209,,San Miguel de Tucumán
Kosten Aike,hotel,-50.3361624,-72.2669579,,
Cabo Vírgenes,cape,-52.3324288,-68.357564,,
Le Park,hotel,-26.8147495,-65.205782,,
La Casona,hotel,-27.4308682,-65.6139185,,Aguilares
El Rulo,attraction,-26.7990264,-65.3519109,,
Información Turística,information,-29.4131988,-66.8560365,,
Hotel El Faro,hotel,-35.9787951,-62.7297199,Buenos Aires,Trenque Lauquen
Hosteria 7 lagos,hotel,-40.62755,-71.6618267,,
Danubio,hotel,-32.7361474,-60.7422408,,
Volcán El Muerto,volcano,-27.0582068,-68.4841359,,
Newenkelen,hostel,-50.3337033,-72.2557459,,
Museo Arqueológico Pío Pablo Díaz,museum,-25.1202541,-66.1616296,,
Cristo,wayside_cross,-28.1689026,-65.7880087,,
"Estación III ""El Parrón"" - Cablecarril Mina La Mejicana",attraction,-29.0893186,-67.6366253,,
"Estación IX ""La Mejicana"" - Cablecarril Mina La Mejicana",attraction,-29.0126596,-67.774979,,
"Estación IV ""Siete Cuestas"" - Cablecarril Mina La Mejicana",attraction,-29.0688524,-67.6580594,,
Los Alamos,hotel,-32.766793,-60.7380762,,
Maracaibo,motel,-32.7658232,-60.7418316,,
"Estación I ""Chilecito"" - Cablecarril Mina La Mejicana",attraction,-29.1804687,-67.4917131,,
Observatorio Pierre Auger,attraction,-35.4633159,-69.5848159,,
Museo Regional Malargue,museum,-35.4626535,-69.5861382,,
Camping El Dique,camp_site,-35.5425672,-69.6437129,,
Castillos de Pincheira,viewpoint,-35.5203687,-69.795992,,
Torre del Cincuentario,attraction,-35.4745226,-69.5853202,,
Molino Rufino Ortega,monument,-35.4645924,-69.5856663,,
Casbas,information,-36.7648397,-62.5185229,,
Beato Mamerto Esquiú,memorial,-28.3974583,-65.701434,,
Hotel Nº 1,hotel,-32.2044443,-64.4193173,,
Hotel Nº 7,hotel,-32.2138636,-64.4241369,,
Museo de los Inmigrantes,museum,-27.5000284,-55.1124202,,
Hotel de Turismo Santa Rita,hotel,-27.5832084,-66.3101933,,
Camping La Cañada,picnic_site,-27.5870297,-66.2958359,,
Hotel Aquasol,hotel,-27.5750705,-66.3127597,,Andalgalá
Cerro Dedos,peak,-38.1108212,-71.0603302,,
Cerro Moncol,peak,-38.0931953,-71.1009308,,
Balneario El Molino,picnic_site,-27.6988885,-67.1675818,,
Balneario Concepcion,camp_site,-28.6771218,-66.0545889,,
Centro de Atención al Turista,information,-32.7447188,-60.7308923,,
Museo de Historia Regional,museum,-32.7429954,-60.7324896,,
Vista al Río Paraná y sus Islas,viewpoint,-32.7463389,-60.7267032,,
Museo iberoamericano de artesanias de Fundart,museum,-31.4238274,-64.1921752,,
Caverna de las Brujas,yes cave_entrance,-35.8006915,-69.8204056,,
Bajada al rio,attraction,-28.1638359,-65.7927837,,
Balneario,attraction,-28.7456391,-65.551578,,
Camping,camp_site,-28.7491163,-65.5469079,,
Hostal de Anquincila,hotel,-28.7527757,-65.5471499,,
"Cabaña ""Don Hermete""",alpine_hut,-28.7492754,-65.5474018,,
Mirante Foz do Iguaçu - Rio Paraná,viewpoint,-25.6840516,-54.4400358,,
Tortuga alegre,camp_site,-31.2873163,-57.955413,,
Las Palmeras,camp_site,-31.2451677,-57.9615933,,
Asadores y Mesitas,picnic_site,-28.4674591,-65.716237,,
Museo Francisco Muñiz,museum,-34.674136,-58.8689597,,
Autódromo Nasif Estéfano,attraction,-26.8264835,-65.1806893,,
Catalinas Park,hotel,-26.8275847,-65.1936333,,
Museo de la Industria Azucarera,museum,-26.8266033,-65.190283,,
Balneario,picnic_site,-28.0615706,-66.1933214,,
Patios de Cafayate,hotel,-26.0632424,-65.9656893,,
Condomino El Sol,hotel,-26.0740953,-65.9753932,,Cafayate
Tinkunaku,hotel,-26.0710551,-65.9747119,,
Asturias,hotel,-26.0743869,-65.9754057,,
Camping del Divisadero,camp_site,-26.0938693,-66.0129492,,
Hostería ACA,hotel,-26.0648292,-65.9728659,,
Cámping Municipal,camp_site,-26.0659298,-65.9729059,,
Balneario Rincon,picnic_site,-28.2208317,-66.1424009,,
Oficina de Turismo,information,-36.3568082,-56.7176343,,
Almirante Brown,monument,-36.3548283,-56.7193821,,
Camping ACA,camp_site,-36.3643165,-56.7154554,,
Circuito Automovilístico,viewpoint,-27.4365684,-55.9269612,,
"Canyon del Atuel, sur",viewpoint,-35.0210489,-68.6715184,,
Información Turística,information,-31.8641084,-64.9797969,,
Hosteria Las Rabonas,hotel,-31.8617246,-64.978707,,
Pilastras,attraction  monument,-37.1715764,-62.7451532,,
Museo de Bellas Artes René Bruseau,museum,-27.4495623,-58.9862645,,
Salto Mbocay,attraction,-25.6470039,-54.5797629,,
Monumento a Alsina,attraction  monument,-37.1786753,-62.7520385,,
Cerro Diamante,volcano,-34.6377548,-69.085917,,
Monumento al Gral San Martín,attraction  monument,-37.1792448,-62.7580588,,
Monumento al General Levalle,attraction  monument,-37.1794392,-62.7600699,,
Cristo,attraction,-37.1683245,-62.7734098,,
Hotel Epecuén,hotel,-37.1805046,-62.7586336,,
Museo Regional Dr. Adolfo Alsina,museum,-37.1808428,-62.7616536,,Carhué
Vagón Histórico,attraction,-47.7535239,-65.8943338,,
Complejo Cielo y Tierra,chalet,-31.8025692,-65.0039587,,
Monumento a los Caidos en las Malvinas,attraction  monument,-37.1800986,-62.7591643,,
Piedra Fundacional,attraction  monument,-37.180647,-62.759727,,
CFN Hotel,hotel,-41.139582,-71.3173179,,
Mirador Cascada Vuliñanco,viewpoint,-40.4305887,-71.5271989,,
Museo del Hombre Chaqueño Profesor Ertivio Acosta,museum,-27.4540861,-58.9853051,,
Museo Florencio Molina Campos,museum,-34.6395621,-58.7927662,,
Hotel Gualok,hotel,-26.781324,-60.4379789,,Presidencia Roque Sáenz Peña
Hotel Presidente,hotel,-26.7855991,-60.4393954,,Presidencia Roque Saenz Peña
Museo Amancio Alcorta,museum,-34.6563546,-58.7804078,,
Autómovil Club Argentino,hotel,-26.4031027,-54.6087547,,Eldorado
Cascada Mina Clavero,attraction,-31.7069284,-64.9013025,,
Las Orquídeas,chalet,-26.5695892,-54.7580861,,Montecarlo
Hostería La Sequoya,hotel,-37.1789748,-70.6710543,,
Camping,camp_site,-37.1733744,-70.6518418,,
Castelar,hotel,-26.4055396,-54.6169758,,Eldorado
Morteros Aborigenes,ruins,-31.9230795,-64.5744385,,
Lo De Manu Y Juan,camp_site,-31.9245016,-64.5766211,,
Oficina de Turismo,information,-31.9201225,-64.5772313,,
Campo de doma,attraction,-31.9182441,-64.5771331,,
La Elsi,camp_site,-31.9219261,-64.5748783,,Los Reartes
Corral de Piedras Año 1780,attraction,-31.9168062,-64.5810987,,
Camping Los Pinos,camp_site,-31.9045006,-64.5677098,,
Cabañas del Rosario,hotel,-31.9029105,-64.5768627,,
Complejo El Paseo,attraction,-31.8923119,-64.7758153,,
Hotel La Cumbrecita,hotel,-31.8960945,-64.7758347,,
Bosquecilto,attraction,-31.8949332,-64.7767592,,
Paseo Alto,attraction,-31.8952562,-64.7776592,,
El Mosco,hostel,-48.4646459,-72.5608352,,
Camping,camp_site,-41.9923409,-71.544162,,
Hosteria Andacollo,hotel,-37.18019,-70.6668018,,
Hotel La Fortaleza,hotel,-28.6398948,-65.1337145,,Frías
Hotel del Norte,hotel,-28.6315442,-65.1348539,,Frías
Hotel Simon,hotel,-28.6280748,-65.1314268,,Frías
Valle Grande,hotel,-34.821213,-68.5090635,,
Registro Civil - Juan XXIII,information,-26.8131196,-65.2153978,,
Difunta Correa,wayside_shrine,-37.0244387,-70.7629211,,
Las Ovejas,monument,-36.9904579,-70.7493569,,
Camping Municipal Las Ovejas,camp_site,-36.9898476,-70.7487435,,
Camping Laguna Epu Lauquen,camp_site,-36.8178098,-71.0790181,,
Guardaparque,information,-36.8412997,-71.0107175,,
Monumento al General Roca,memorial,-41.1334869,-71.310147,,
Padilla Hostel,hotel,-46.5531755,-71.6329691,,
Shanti Niketan,guest_house,-33.0369042,-68.9275786,,
Carlos V,hotel,-27.7878193,-64.2585128,,Santiago del Estero
Museo Municipal de Bellas Artes Manuel Belgrano,museum,-34.6536952,-58.790432,,
Plaza San Martin,memorial,-34.6129419,-68.330481,,
Picnic,picnic_site,-31.3997163,-64.4727889,,
Descanso Las tres Marías,hotel,-31.4294447,-64.499154,,
Alberghini,hotel,-37.8476618,-58.2576101,,Balcarce
Monumento de Francia a la Argentina,monument,-34.5849664,-58.3934704,,
Orleans,hotel,-34.60124,-58.3929992,,
Los Nogales,hotel,-35.8092051,-61.8978501,,Pehuajó
Piccolini,hotel,-35.8120658,-61.8983327,,Pehuajó
Museo Miguel Lillo de Ciencias Naturales,museum,-26.8315818,-65.2220697,,San Miguel de Tucumán
Holtel El Patio,hotel,-34.5925846,-58.5585482,,
El Litoral,hotel,-34.5869444,-58.4547182,,
Intersur Suites,hotel,-34.6046522,-58.3949452,,Ciudad Autónoma de Buenos Aires
Residencial Che-Roga,hotel,-25.5966936,-54.572214,,Puerto Iguazú
Camping Municipal La Chacra,camp_site,-37.1974641,-62.6992356,,
Up Barrio Norte,hotel,-34.5963388,-58.3948719,,
Camping Ingenieros Mar Azul,camp_site,-37.3510205,-57.0369645,,
Monumento a José de San Martín,memorial,-27.3689485,-55.8975742,,
Calvario,attraction,-34.5471454,-58.432637,,
Monumento al Escape,artwork,-34.5423846,-58.4371135,,
Caballitos de Marly,artwork,-32.8861842,-68.8630141,,
Mirador La Puntilla,viewpoint,-36.952815,-70.7042411,,
Milonga,hostel,-34.5983872,-58.3956884,,
Monumento a la Mujer,monument,-37.4428942,-70.6316163,,El Cholar
Cerro Calafate,peak,-50.3632371,-72.2208389,,
Cerro Huyliches,peak,-50.3804321,-72.2871135,,
Moyano,peak,-50.4513975,-72.3867408,,
El Cristo - Yerba Buena,wayside_cross,-26.8182955,-65.2654385,,
Camping Hipocampo,camp_site,-38.9761629,-61.2902008,,
Hotel Austral,hotel,-38.7203606,-62.2691375,,
Premier,hotel,-26.8324048,-65.2053625,,
Hotel Versailles Tucumán,hotel,-26.8323664,-65.2042224,,San Miguel de Tucumán
Swiss Hotel Metropol,hotel,-26.8310456,-65.2050002,,
Carlos V,hotel,-26.826426,-65.2038203,,
Camping Campamento Base,camp_site,-38.0674589,-62.0203394,,
Ruinas Jesuiticas de Santa Ana,museum,-27.3883652,-55.5805793,,
Hotel del Sol,hotel,-26.8307487,-65.2029884,,
Museo del Holocausto,museum,-34.5980366,-58.3895532,,Ciudad Autónoma de Buenos Aires
CE,hotel,-34.5970716,-58.3915513,,
Design Suites,hotel,-34.5970098,-58.3913005,,
Wilton Palace,hotel,-34.5952228,-58.3934609,,
"""Punto de encuentro""",picnic_site,-34.6058415,-58.3465485,,
Monumento a los Granaderos a caballo,artwork  monument,-34.5947166,-58.3757558,,
Hotel Azul,hotel,-34.5800762,-60.9596604,,
Hotel Embajador,hotel,-34.5897602,-60.947357,,
Hotel Copahue,hotel,-34.5940734,-60.944238,,Junín
Hotel Colón,hotel,-34.5879752,-60.9530551,,Junín
Yretá,hotel,-25.5957371,-54.5702506,,Puerto Iguazú
Monumento Sgto. Cabral,monument,-32.7477912,-60.7273938,,
Central Hotel,hotel,-34.5854284,-60.949813,,
Monumento General San Martín,monument,-32.7469228,-60.7357184,,
Camping Río Reñileuvú,camp_site,-37.340194,-70.7444817,,
Mirador Cerro San Bernardo,viewpoint,-24.7900789,-65.3930688,,
Museo de Arqueología de Alta Montaña,museum,-24.7890491,-65.4109322,,
Refugio Emilio Frey,alpine_hut,-41.1982502,-71.4862753,,
Refugio Italia Manfredo Segre,alpine_hut,-41.1367041,-71.5777839,,
Parque 20 de Febrero,battlefield,-24.7745071,-65.4150935,,
Museo de Antropología Dr Juan Martín Leguizamón,museum,-24.7862231,-65.3977468,,Salta
Gran Hotel Mendoza,hotel,-32.8890154,-68.8417468,,Mendoza
Hotel Posada del Sol,hotel,-24.791033,-65.4105659,,Salta
Sitio donde el General Güemes fue herido de muerte,memorial,-24.7873716,-65.412419,,
Los Nogales 9999,picnic_site,-31.43392,-64.18679,,
Mirador,viewpoint,-26.8044673,-65.3474872,,
Salto Tarumá,attraction,-27.0154006,-54.4149106,,San Vicente
Parador Helsingfors,hotel,-49.6686635,-72.8849052,,
Museo de la Memoria,museum,-27.4499469,-58.9858563,,Resistencia
Colón Hotel Apart,hotel,-27.4515804,-58.9886305,,
Museo Ichoalay,museum,-27.4522216,-58.9933229,,Resistencia
Salto Carpes,attraction,-27.7221877,-55.0535101,,Mojón Grande
Nuevo Ombú,tree,-34.6569137,-58.7810705,,
Estancia Menelik,hotel,-47.8965998,-71.9167398,,
Monolito por el Bicentenario de San Fernando del Río Negro,memorial,-27.4343109,-59.0071008,,
Iguazú Jungle Lodge,chalet,-25.5940308,-54.5657179,,
Jardín de Iguazú,hotel,-25.5969263,-54.5721629,,Puerto Iguazú
Laguna Savoia,attraction,-34.8674394,-58.0279922,,
Motel El Faro,motel,-27.4200243,-59.0075853,,
Mirador Estación II,viewpoint,-29.1334363,-67.5643098,,
Unión río Amarillo y río Aguas Negras,viewpoint,-29.1111394,-67.5907187,,
Mariano Moreno,memorial,-34.6512673,-58.7899971,,
Hostel Maryland,hotel,-27.3819469,-55.9031954,,Posadas
Hostel Peter Pan,hotel,-25.5968839,-54.5707553,,Puerto Iguazú
Hotel Carhué Spa Termal,hotel,-37.1775756,-62.7526604,,
Termas Hotel Avenida,hotel,-37.1837387,-62.7565228,,
Hotel Mirage,hotel,-37.1697577,-62.7479076,,
Hotel Cristal,hotel,-37.1779902,-62.7565604,,
Parque Hotel,hotel,-37.1773149,-62.7541678,,
Vaquerias,hotel,-31.1195012,-64.4590335,,
Las Américas,chalet,-31.1190422,-64.4860368,,
Los Abrojos,hotel,-31.1223399,-64.4888017,,
Camping Smata,camp_site,-31.156019,-64.4731872,,
Zure-Echea,hotel,-31.1184957,-64.4867592,,
Camping Unión Eléctrica,camp_site,-31.3334636,-64.4580934,,
Los Notros,hotel,-50.4750797,-72.9796753,,
Amerian,hotel,-25.5955278,-54.5891455,,Puerto Iguazú
Raíces Esturión,hotel,-25.595755,-54.5868618,,Puerto Iguazú
El Libertador,hotel,-25.5983446,-54.5735625,,Puerto Iguazú
Oasis Hostel Falls,hostel,-25.5976165,-54.5714912,,Puerto Iguazú
Hostel Iguazú Falls,hostel,-25.5982593,-54.5690614,,Puerto Iguazú
Hostería Los Helechos,hostel,-25.599146,-54.569097,,Puerto Iguazú
Kerana Oga,hostel,-25.5979629,-54.5676372,,Puerto Iguazú
Uno,hostel,-25.6009798,-54.5687268,,Puerto Iguazú
Casa Museo El Ángel de la Selva,museum,-25.6003543,-54.5736525,,Puerto Iguazú
Secret Garden B&B,hotel,-25.6077151,-54.5687636,,Puerto Iguazú
Latino,hotel,-25.6044626,-54.5692594,,Puerto Iguazú
La Aldea de la Selva,chalet,-25.6143851,-54.5551374,,Puerto Iguazú
Hostel Inn Iguazú,hostel,-25.6293901,-54.5455177,,
Museo Municipal de Arte Juan Carlos Castagnino,museum,-38.0104193,-57.5357641,,
Monumento a la Independencia Económica (?),artwork,-38.0447058,-57.5437448,,
Escultura Marta Minujin,artwork,-37.9896438,-57.5454517,,
Museo del Hombre del Puerto Cleto Ciocchini,museum,-38.0469771,-57.5433212,,Mar del Plata
Torre de Manatiales,hotel,-38.0172514,-57.5310967,,Mar del Plata
San Martín,monument,-37.9976391,-57.5482651,,
Andreas Madsen,guest_house,-49.3320239,-72.8851323,,El Chaltén
Museo del Vino,museum,-32.9572064,-68.7444967,,
Bodega Tempus Alba,attraction,-33.0012356,-68.7512969,,
Pueblo Chico,attraction,-27.4054955,-55.9776095,,
Gran Hotel Orly,hotel,-34.5973452,-58.3725548,,
Retreta de la Plaza Libertad,monument,-27.7878745,-64.2595153,,
Hotel Colonial,hotel,-23.1388693,-64.324524,,
Camping Río Pescado,camp_site,-22.9673918,-64.3607017,,
Las Brisas,hotel,-26.0119739,-54.586348,,Puerto Esperanza
Hostal Cruz Chica,hotel,-30.9631372,-64.4832606,,
Carapacho,volcano,-35.8302078,-69.148071,,
Cerro Trapal,volcano,-35.612727,-69.2010558,,
Payún Liso,volcano,-36.5104066,-69.2848079,,
Cerro Malacara,volcano,-35.7742832,-69.4776206,,
América,hotel,-26.8225353,-65.2114898,,
Salto La Cascada,attraction,-27.4954513,-55.0296943,,Oberá
Avellaneda Hotel,hotel,-51.613481,-69.2262883,,Río Gallegos
Sehuen,hotel,-51.6174041,-69.2194055,,Río Gallegos
Oviedo,hotel,-51.6182235,-69.2280302,,Río Gallegos
Croacia,hotel,-51.6212385,-69.2246685,,Río Gallegos
Plaza,archaeological_site,-27.2541998,-55.5317037,,
Cerro Carbón,peak,-41.1969136,-71.2932317,,
General José de San Martín,memorial,-36.7775118,-59.8634683,,
Monumento al General San Martín,memorial,-38.6952788,-62.2682861,,
Monumento a Rómulo y Remo,memorial,-38.6985861,-62.2674602,,
Museo Fundador,museum,-26.410194,-54.6897571,,Eldorado
Rotonda,memorial,-26.837991,-65.1698175,,
Alejandro I,hotel,-24.7868418,-65.4119854,,
Cabañas Valle Pintado,hotel,-30.6360521,-67.4658547,,
Finca La Media Luna,hotel,-30.7008582,-67.495924,,
Windsor,hotel,-31.4188376,-64.1838499,,Córdoba
Sussex,hotel,-31.4174564,-64.1828903,,Córdoba
King David,hotel,-31.4108202,-64.1847796,,Córdoba
El Virrey,hotel,-31.4072243,-64.1839573,,
Córdoba Plaza International,hotel,-31.4175165,-64.1826876,,Córdoba
Astoria,hotel,-31.4128724,-64.1853694,,Córdoba
Cerro Cerrillos,peak,-23.9163184,-68.6981188,,
Embassy,hotel,-38.2683126,-57.8375706,,
Montecarlo,hotel,-38.2727739,-57.8340137,,
Camping La Playita,camp_site,-26.3832884,-54.5688844,,
Mirador,viewpoint,-38.1275919,-61.7899362,,
Cerro Ceferino,peak,-38.1266222,-61.788773,,
Payún Matrú,volcano,-36.422238,-69.2380108,,
Cabañas Valle Hermoso,chalet,-27.388148,-65.9822172,,Yunka Suma
Cerro de La Ventana,peak,-38.0491104,-62.0197296,,
Cerro Bahía Blanca,peak,-38.0691418,-61.9837442,,
Cerro Tronquitos,peak,-28.5226046,-69.7289599,,
Cerro El Potro,peak,-28.3939677,-69.6294907,,
Chullpas,peak,-27.121185,-68.6633521,,
WP 3,peak,-27.2097659,-68.5746032,,
Cerro El Cóndor,peak,-27.0536331,-68.4554702,,
Morro Peñón Al Norte del Falso Azufre,peak,-26.7989404,-68.3685367,,
Pabellón del Arenal,peak,-27.141351,-68.4458572,,
WP 2,peak,-27.2146164,-68.5632904,,
Volcán Medusa,volcano,-27.1279074,-68.4841377,,
Olmedo,peak,-27.2072259,-68.5259175,,
Volcán Falso Azufre,volcano,-26.8140093,-68.3503964,,
Walther Penck,peak,-27.1958725,-68.561042,,
Volcán Negro,volcano,-27.0985074,-68.3810658,,
WP4,peak,-27.2360136,-68.5782081,,
Pabellón Sur,peak,-27.1549457,-68.4467155,,
Cerro El Peñón,peak,-26.7911333,-68.4086067,,
Nevado o Muertito,peak,-27.0631149,-68.4278733,,
Volcán del Viento,volcano,-27.1908486,-68.4735073,,
Cerro Bonete,peak,-27.6386864,-69.0308877,,
Cerro de Los Patos o Tres Quebradas,volcano,-27.2998387,-68.8084781,,
Quebrada Seca Norte,peak,-27.8668539,-69.129078,,
Cerro Salado o del Río Salado,peak,-27.2630516,-68.7493731,,
Cerro Dos Hermanas (cumbre Norte),peak,-27.5255799,-68.987523,,
Quebrada Larga,peak,-28.0403298,-69.2537042,,
Cerro de Come Caballos,peak,-28.2265015,-69.3912839,,
Cerro Blanco,peak,-28.3451309,-69.5650146,,
Paso Portillo de Piuquenes,saddle,-33.6333164,-69.8747368,,
Zelada,peak,-28.1638433,-69.3359292,,
Cerro Caserones,peak,-28.189038,-69.4589245,,
Morro Rasguido o Aguas Calientes,peak,-27.2470083,-68.3042489,,
Violado,peak,-27.7608757,-68.9768181,,
Cerro de la Ollita,peak,-28.2303944,-69.4571238,,
Cerro Ojo de Las Lozas,peak,-27.1074587,-68.2755053,,
Cerro Verde,peak,-28.2921568,-69.46697,,
Volcán Rojo,volcano,-27.1500516,-68.3229675,,
Vegas Altas,peak,-28.248129,-69.3376503,,
Sosa,peak,-27.1993825,-68.3566056,,
Cerro del Baboso,peak,-28.2891921,-69.3770196,,
Dos Conos Oeste,peak,-26.8092196,-68.3035622,,
Cerro Laguna Escondida,peak,-26.6035118,-68.479815,,
Cerro El Cóndor,volcano,-26.6320926,-68.3608892,,
Cumbre del Laudo,volcano,-26.5058522,-68.5243723,,
Cerro Dos Conos,peak,-26.8036403,-68.2774408,,
Cerro Manantiales,peak,-26.4407332,-68.3618622,,
Sierra Colorada,peak,-26.0648033,-68.4281712,,
Cerro Plomiza,peak,-26.427425,-68.6361733,,
Cerro Plegado,peak,-25.9814467,-68.3243444,,
Cumbre Norte,peak,-26.4791026,-68.5907346,,
Volcán El Ermitaño,volcano,-26.7841801,-68.6011233,,
Alto Quebrada Honda,peak,-25.6321339,-68.2404938,,
Termas del Plomo,hot_spring,-33.6178634,-69.9105157,,
Cerro Pirca de Indios,peak,-26.8032957,-68.7356652,,
Cerro Pajonales,peak,-24.237857,-68.1176361,,
Cerro Colorado,peak,-23.9991146,-68.3455741,,
Volcán Salín,volcano,-24.3281629,-68.0670324,,
Monumento a A. G. Chaves,monument,-38.0270588,-60.0997277,,
Monumento a Domingo Carricart,monument,-38.0238929,-60.1055262,,
Monumento Islas Malvinas,monument,-38.0304589,-60.0922318,,
Monumento a Ana Paysas de Eliçagaray,monument,-38.0280208,-60.0982453,,
Monumento al Gral. San Martín,monument,-38.0315485,-60.095715,,
Monumento al Payador,monument,-38.3968602,-60.2812409,,
Estatua de la Libertad,monument,-38.3843808,-60.2659069,,
Monumento Volponi,monument,-38.392098,-60.2754541,,
Museo de Bellas Artes,museum,-38.3786398,-60.2730959,,
Museo Mulazzi,museum,-38.3738877,-60.2791474,,
Casa Barco,attraction,-39.00058,-61.5426689,,
Hotel Cumelcan,hotel,-39.0035816,-61.5509033,,
Borges,artwork,-26.8192125,-65.2031401,,
San Esteban,camp_site,-35.6395029,-61.3766325,,
Información Turística,information,-38.9878867,-61.2881,,
Secretaría de Turismo,information,-38.9870527,-61.2908465,,
Información Turística,information,-38.9886476,-61.2881751,,
Información Turística,information,-38.2046687,-61.7694379,,
Monumento a los Crianceros (Mural),artwork,-35.4799951,-69.5849753,,
Dazzler Suites Aroyo,hotel,-34.5919102,-58.3799634,,
Refugio Hielo Azul,alpine_hut,-41.8886018,-71.639275,,
Refugio Cajón de Azul,alpine_hut,-41.8509512,-71.6217133,,
San Martín,artwork,-43.492339,-70.8118205,,
Monumento a Bartolomé Mitre,monument,-34.584315,-58.3962125,,
Museo Roca,museum,-34.587663,-58.3955349,,Ciudad Autónoma de Buenos Aires
Pozo Hondo,picnic_site,-35.0020768,-67.451011,,
Corrida de Cori (cumbre sur),peak boundary_stone,-25.1106269,-68.3432973,,
Cerro Negro o Volcán,peak,-25.0318335,-68.3787346,,
Hito XVI-6C,boundary_stone,-25.0393264,-68.3898729,,
Cerro Telar o Guanaqueros,peak,-24.5356215,-68.4095371,,
Hito XVI-7,boundary_stone,-24.7766195,-68.5610457,,
Cerro Inca,peak,-24.5995921,-68.4940857,,
Paso de Azufre,saddle,-25.1304193,-68.464812,,
Cerro Moño,peak,-25.1453042,-68.4092744,,
Cerro Guanaco,peak,-24.9248645,-69.1246087,,
Hotel El Norteño,hostel,-30.3596148,-60.3973369,,
Museo Del Indigena,museum,-30.3832486,-60.315915,,
Aljibe de la antigua estacion de trenes,ruins,-34.8669444,-58.0398567,,
RCT Club Vacacional & SPA,hotel,-38.1676355,-57.6508301,,
Cerro Nevado,volcano,-35.5815472,-68.4897742,,
Locomotora Antigua,attraction  locomotive,-38.7855202,-62.2653907,,
Cerro Tres Picos,peak,-38.1580315,-61.9524155,,
Complejo Turístico El Mirador,hotel,-38.0704012,-62.0277893,,
Inodoro Pereyra Y Mendieta,attraction,-34.6103717,-58.3603754,,Ciudad Autónoma de Buenos Aires
Glorieta de City Bell,monument,-34.885168,-58.0442851,,
Cerro de la Cruz,viewpoint peak,-37.6289224,-62.4011147,,
Primera Conscripción Argentina,monument,-37.6029367,-62.4175207,,
Hotel Francés,hotel,-37.6013376,-62.4096035,,Pigüé
Hotel Central,hotel,-37.603027,-62.4076566,,
Monumento a Cabanettes,monument,-37.6031923,-62.403302,,
Hospedaje Avenida,hotel,-37.6008849,-62.4098131,,Pigüé
Parque Hotel,hotel,-37.6026785,-62.4153277,,Pigüé
Museo y Archivo Histórico,museum,-37.6067584,-62.4182245,,Pigüé
Monumento a San Martín,memorial,-37.7210135,-62.6065277,,
Monumento a las Malvinas,monument,-37.690342,-63.1602126,,
Monolito al Cooperativismo,monument,-37.6870616,-63.1630949,,
Monumento Padre Niehaus,monument,-37.6901483,-63.1663377,,
Camping Los Rios,camp_site,-31.7263802,-65.0233984,,
Museo Histórico,museum,-37.6680766,-63.5341711,,Guatraché
Museo Ignacio Balvidares,museum,-37.543473,-62.7673809,,Puan
Hotel Puan,hotel,-37.542412,-62.7668634,,Puan
Informes Turísticos,information,-34.9780762,-67.6887927,,
Museo Municipal,museum,-34.9786033,-67.6955166,,General Alvear
Mirador Pampa de los Bayos,viewpoint,-26.2243192,-68.2716223,,
Camping Municipal,camp_site,-46.5394847,-68.9210804,,
Bridasaurio,monument,-46.7870289,-67.98357,,
La Horqueta,attraction,-33.2756093,-60.2522629,,
Monolito Tripartito,boundary_stone,-34.3863745,-62.8840813,,
Refugio Verde,hostel,-27.4996407,-55.0931971,,Oberá
Camping La Cascada,camp_site,-27.4955512,-55.0303091,,Campo Ramón
Monte Zeballos,peak,-47.0358258,-71.7009059,,
Museo histórico de Rivadavia,museum,-35.4858064,-62.9763185,,Rivadavia
Hosteria Futalaufquén,motel,-42.8604651,-71.6277553,,
Vista Lago Verde,viewpoint,-44.2185867,-71.8838792,,
Manqui Malal,camp_site,-35.7558727,-69.5656446,,
Resort Villa Piren,chalet,-31.403538,-64.5482931,,
Residencial Comodoro,hotel,-28.4680242,-65.7745986,,
Coprodesu,information,-37.4586822,-61.9293046,,
Monolito,monument,-32.8642913,-69.7707936,,
Pablo Fassina,artwork,-36.9032312,-60.3165618,,
Lago Roca,viewpoint,-54.8304719,-68.5636884,,
Concepción de Buena Esperanza,ruins,-26.142578,-60.3082137,,
Sierra Baya,peak,-38.0625532,-70.9296365,,
Cerro Vestiquero,peak,-38.2699722,-70.9425488,,
Cerro Butahuao,peak,-38.1509681,-70.9007394,,
Cerro Bustamante,peak,-38.2886989,-70.8953362,,
Punta la Cuña,peak,-33.1647248,-70.238697,,
Cerro Iver,peak,-33.1482088,-70.226376,,
Nevado Olivares,peak,-33.0977288,-70.1622948,,
Cerro El Paso,peak,-33.089197,-70.130722,,
Cerro El Barco,peak,-33.4530266,-69.8580003,,
Cerro San Juan,peak,-33.4693047,-69.8151123,,
Andrade,peak,-33.8399225,-69.9434394,,
Amarillo,peak,-33.8767433,-69.9003439,,
Cerro El Gorro,peak,-34.0715729,-69.8331273,,
Nevado Penitente,peak,-34.6267452,-70.3360185,,
Rómulo y Remo,monument,-37.9914724,-57.5463999,,
Camino de los Pioneros,information peak,-37.3642076,-59.1389517,,
Cerro El Peñón,peak,-35.3019981,-70.5488105,,
Casa Rojo,attraction,-35.2770252,-58.1979386,,
Cerro Philippe,peak,-32.980176,-69.9790936,,
Cruz Monte Calvario (12),monument,-37.328835,-59.1549489,,
Monte Calvario,peak,-37.3289588,-59.1552574,,
Cabañas Los Rosales,cabin,-31.7288442,-65.0145111,,Mina Clavero
Salto Bonito,camp_site,-25.9678024,-54.5831545,,Wanda
Yvyrá,chalet,-25.9180205,-54.5751256,,Puerto Libertad
Suizo,hotel,-26.8000652,-55.0226856,,Puerto Rico
Paris,hotel,-26.8067874,-55.0240408,,Puerto Rico
Costanera,yes,-29.7228481,-57.0842321,,
Hotel Tower Inn & Suites,hotel,-34.6126918,-68.3394359,,San Rafael
Información Turística,information,-34.6131874,-68.3390701,,
Hotel Vecchia Terra,hotel,-34.6127978,-68.3385508,,
Plaza,information,-34.6282831,-68.3524384,,
Postales Boutique Wine Hotels - Chacras de Coria,hotel,-32.9921558,-68.8874267,,
Safari,zoo,-33.6690295,-59.6681232,,
ACTUR,camp_site,-33.6685161,-59.6686582,,
Camping América,camp_site,-33.6685919,-59.6694773,,
Las Canaletas,camp_site,-33.6678784,-59.673875,,
Camping Club de Pescadores y Náutica de San Pedro,camp_site,-33.6772375,-59.6541516,,San Pedro
Tiro Federal,camp_site,-33.6778072,-59.6546275,,San Pedro
Complejo Mansa L.y.F.E. Cabañas de San Pedro,camp_site,-33.6804228,-59.6501656,,
Monumento a Pedro de Mendoza,artwork  memorial,-34.6257093,-58.3705765,,
Monumento a la Cordialidad Argentino-Uruguaya,monument,-34.6279872,-58.3696441,,
Museo Municipal de Arte Moderno de Mendoza (MMAMM),museum,-32.8899364,-68.8448715,,
Fuente de los Continentes,attraction,-32.8890925,-68.8666505,,
Howard Johnson Hotel,hotel,-29.1603382,-67.4940051,,Chilecito
Cruz del Rincon,wayside_cross,-29.1709233,-67.4890394,,Chilecito
Museo de Ciencia y Técnica,museum,-38.6963931,-62.2920557,,
Cañón Vuelta de Obligado,monument,-38.7009333,-62.2861041,,
Pragamisiones,chalet,-27.262396,-55.540444,,San Ignacio
Brizas del Norte,hotel,-27.2614133,-55.5314229,,San Ignacio
La Toscana,hotel,-27.2624575,-55.5352816,,San Ignacio
Posada Los Lagartos,guest_house,-27.2589361,-55.5432493,,San Ignacio
Hosteria El Bolson,hotel,-27.9022778,-65.8797861,,
Del Rey,hotel,-42.7702226,-65.0300831,,Puerto Madryn
Aguas Mansas,hotel,-42.7747202,-65.0271875,,Puerto Madryn
Australis Yene-hue,hotel,-42.7641795,-65.0348027,,Puerto Madryn
Hotel Avenida,hotel,-42.7758144,-65.0489705,,Puerto Madryn
Carrera,hotel,-42.7737171,-65.0331582,,Puerto Madryn
Costanera Hotel,hotel,-42.7712587,-65.0291239,,Puerto Madryn
El Cid,hotel,-42.77281,-65.0305488,,Puerto Madryn
Fantili,hotel,-42.7708784,-65.0338562,,Puerto Madryn
Gran Madryn 1ro.,hotel,-42.7719133,-65.0290824,,Puerto Madryn
Hotel Gran Palace,hotel,-42.7675656,-65.0386084,,Puerto Madryn
La Posada de Madryn,hotel,-42.7885131,-65.0167191,,Puerto Madryn
Mora,hotel,-42.7731878,-65.0399908,,Puerto Madryn
Muelle Viejo,hotel,-42.7639495,-65.0351284,,Puerto Madryn
Piren,hotel,-42.7678505,-65.0323716,,Puerto Madryn
Rayentray,hotel,-42.7849344,-65.0098995,,Puerto Madryn
Samay Huasi,hotel,-42.7732758,-65.0329765,,Puerto Madryn
Tandil,hotel,-42.7743479,-65.0392185,,Puerto Madryn
Territorio,hotel,-42.7853944,-65.0029099,,Puerto Madryn
Vaskonia,hotel,-42.7646116,-65.0360677,,Puerto Madryn
Yanco,hotel,-42.7699312,-65.0307665,,Puerto Madryn
Salto Golondrina,attraction,-27.1309837,-54.4887337,,San Vicente
Salto Alegre,attraction,-27.1315862,-54.8273857,,
Hipocampo,hotel,-42.7791996,-65.0209605,,Puerto Madryn
Los Troncos,hotel,-42.7773532,-65.0308014,,Puerto Madryn
La Vieja Aldea,hotel,-42.7741119,-65.0291078,,Puerto Madryn
Hostería Manolo's,hostel,-42.7714086,-65.0302565,,Puerto Madryn
Solar de la Costa,hotel,-42.7811832,-65.0183635,,Puerto Madryn
Verona,hotel,-42.7730253,-65.0304561,,Puerto Madryn
Hélice del Vapor Villarino,attraction,-42.7694015,-65.0304289,,
Museo Olgbrun,museum,-42.9216699,-71.3518479,,
Cascada,attraction,-42.8970779,-71.3007632,,
Mirador,viewpoint,-43.0324196,-71.4420801,,
Mirador,viewpoint,-42.9912687,-71.4971208,,
Picnic Puerto Limonao,picnic_site,-42.8613054,-71.6248921,,
Informaciones Cholila,information,-42.5115991,-71.4323632,,
Mirador Glaciar,viewpoint,-42.728744,-71.758136,,
El Bosque Tallado,attraction,-41.9672808,-71.4723214,,
Apart Hotel Aires del Beagle,hotel,-54.8009415,-68.3027317,,
Hosteria Kaiken,hostel,-54.5534315,-67.2257573,,
Cabañas Calafate,chalet,-50.3398993,-72.3035088,,
Mirador Cerro Pantojo,viewpoint,-40.7246209,-71.9293488,,
Mirador Inalco,viewpoint,-40.7223477,-71.6930652,,
Mirador Brazo Norte,viewpoint,-40.7313679,-71.6798838,,
Arte Rupeste,viewpoint,-39.6321683,-70.9382077,,
Playa,viewpoint,-38.8866155,-71.1755417,,
Mirador Lago,viewpoint,-41.0490053,-71.1512911,,
Museo del Agricultor,museum,-26.6054529,-54.7006464,,Montecarlo
Hostería Helvecia,hotel,-26.5701546,-54.750967,,Montecarlo
Aquarium Montecarlo,aquarium,-26.5791977,-54.7270902,,
Hotel Molina,hotel,-33.4597629,-67.5538153,,La Paz
Mirador,viewpoint,-42.7065764,-71.7076916,,
Pasarela Rio Arrayanes,viewpoint,-42.7261372,-71.7416312,,
Vista Glaciar Hielo Azul,viewpoint,-41.8873873,-71.655064,,
Mirador Raquel,viewpoint,-41.906112,-71.6006971,,
Mirador del Mallin,viewpoint,-41.9100085,-71.5787353,,
Cabañas del Arroyo,chalet,-34.5759488,-59.0652418,,Luján
Información turística,information,-34.5759431,-59.0655872,,
La Giralda,hotel,-34.6084829,-58.3792922,,
Reconquista Plaza,hotel,-34.60074,-58.3726791,,
Cabanas Don Juan,guest_house,-26.4005159,-54.6355274,,Eldorado
Montesco,hotel,-26.4041096,-54.6310985,,Eldorado
Che Roga,hotel,-26.4228407,-54.6460012,,Eldorado
Hotel Embajador,hotel,-33.0101585,-58.5109217,,
Hotel Guayra,hotel,-33.0069632,-58.4996935,,Gualeguaychú
Hotel Alemán,hotel,-33.0108919,-58.5104111,,Gualeguaychú
Hotel Barracas del Puerto,hotel,-33.0142968,-58.5065724,,
Punta Sur,camp_site,-33.007128,-58.4887017,,
El Paillacar,camp_site,-33.0181254,-58.4763884,,
la Comarca,monument,-34.6384985,-58.4583581,,
Toucan Lodge,guest_house,-25.6201386,-54.5615092,,Puerto Iguazú
Rio,viewpoint,-40.986647,-71.0935152,,
Hotel San Cristobal,hotel,-30.3102828,-61.2340666,,San Cristóbal
Cajón del Azul,viewpoint,-41.8515282,-71.6209994,,
Cuevas,viewpoint,-41.8478903,-71.6233308,,
Plallita Azul,viewpoint,-41.7392286,-71.7497098,,
Camping La Pasarela,camp_site,-41.5678042,-71.7730417,,
Camping Selva Negra,camp_site,-41.133472,-71.343079,,
Cascadas de Nant y Fall,viewpoint,-43.1890152,-71.475518,,
Mirador Lago Verde,viewpoint,-42.7134712,-71.7192879,,
Curva de los Huanacos,viewpoint,-42.8477895,-71.2598478,,
Vista,viewpoint,-42.84007,-71.2623342,,
Rio,viewpoint,-41.7215813,-71.4555397,,
Supara,hotel,-25.6059597,-54.5917912,,
Apart Hotel Iken,hotel,-30.9689628,-57.9366377,,
Lago Espejo,viewpoint,-40.6869478,-71.6963079,,
Camping,camp_site,-40.789549,-71.1202172,,
El Viejo Bar,hotel,-46.5981009,-70.924605,,
Belgrano,hotel,-46.597865,-70.9241007,,
Predio - El Siambon,information,-26.7051544,-65.4330287,,
Casa Köhli,guest_house,-34.6185968,-58.378095,,Ciudad Autónoma de Buenos Aires
Mirador,viewpoint,-33.1856565,-66.2617593,,
Hotel Confianza,hotel,-27.4702523,-58.8358161,,Corrientes
Hotel Victoria,hotel,-27.4699735,-58.8294802,,Corrientes
Hotel La Mansion,hotel,-27.4697724,-58.833474,,
Hotel La Rozada,hotel,-27.4620265,-58.8348865,,
Hotel San Martín,hotel,-27.4688454,-58.8304699,,Corrientes
"Estación VI ""El Cielito"" - Cablecarril Mina La Mejicana",attraction,-29.0388366,-67.6965152,,
"Estación V ""Cueva de Romero"" - Cablecarril Mina La Mejicana",attraction,-29.0488648,-67.6800862,,
"Estación VIII ""Los Bayos"" - Cablecarril Mina La Mejicana",attraction,-29.0157769,-67.7438309,,
Mina del Oro,attraction  ruins,-29.0752226,-67.7338064,,
Bodega San Javier,attraction,-32.0239803,-65.0140636,,
Hotel Yacanto,hotel,-32.0414802,-65.0272694,,
Posada el Pucará,hostel,-32.0389223,-65.0377455,,
Información Turística,information,-32.8906583,-68.8392472,,Mendoza
Cerro Chinquinco,peak,-38.9299553,-71.3783693,,
Volcán Batea Mahuida,volcano,-38.8150322,-71.1854678,,
Cerro Batea Mahuida,peak,-38.8658504,-71.1436386,,
Salto Arrechea,viewpoint,-25.6552036,-54.4572136,,
Hotel La Paz,hotel,-36.3740512,-59.50575,,Cacharí
Museo Ciudad San Fernando de Buena Vista,museum,-34.436338,-58.560319,,San Fernando
Biblioteca y Museo Popular “Juan Nepomuceno Madero”,museum,-34.4380236,-58.5601312,,San Fernando
Cruz de los Milagros,attraction,-28.5107352,-59.0512687,,
El Triángulo,hotel,-28.5180137,-59.0392202,,
Hotel El Fundador,hotel,-31.4189465,-64.178606,,Córdoba
Monumento a El Cid Campeador,artwork  memorial,-34.6075828,-58.4457265,,
Oficina de Turismo,information,-36.7944528,-59.8836506,,
Museo Etnográfico Enrique Squirru,museum,-36.7762704,-59.8660999,,Azul
Oficina de Turismo,information,-36.7838225,-59.8514926,,Azul
Museo Municipal de Arte López Claro,museum,-36.7754763,-59.8615029,,
Hotel El Descanso,hotel,-34.5883416,-60.9521629,,
Dazzler Tower San Martin,hotel,-34.597082,-58.3743907,,Ciudad Autónoma de Buenos Aires
Posta 1,information,-38.063405,-62.020172,,
Bodega Artesanal,attraction,-28.0556373,-67.5683387,,
Hosteria Novel,hotel,-28.0540684,-67.5686162,,
Hostal Casagrande,hotel,-28.0670169,-67.567804,,
Cerro El Triunfo,peak,-37.8604783,-58.2543119,,
Monumento al General Balcarce,monument,-37.8454289,-58.2567648,,
Casa Grande,hotel,-27.9185825,-55.7554384,,Apóstoles
Oga Pora,hotel,-27.9117953,-55.7600386,,Apóstoles
Museo de Ciencias Naturales Gesué P. Noseda,museum,-38.1676332,-58.7849018,,Lobería
Museo de Historia,museum,-38.1674306,-58.7874038,,
Hotel El Ciervo,hotel,-38.1639866,-58.7859501,,
Hotel Español,hotel,-38.1634454,-58.7846942,,Lobería
Cerro Murallón,peak,-49.7894444,-73.4511111,,
Cerro Campana,peak,-40.5781297,-71.825051,,
Cerro Constancia,peak,-40.6107876,-71.8385906,,
Hotel San Jorge,hotel,-30.4227558,-64.3513197,,Deán Funes
Hotel Alcázar,hotel,-32.4157164,-63.2320601,,
Rancho Grande,guest_house,-31.9836193,-64.559792,,
Hotel Cabra Corral,hotel,-25.283183,-65.4728481,,
Hotel Montpellier,hotel,-30.8531467,-64.9920786,,
Hotel Los Aromos,hotel,-31.7286551,-65.0055864,,
Pastos Chicos,motel,-23.4225105,-66.3836856,,
Cerro 12 de Febrero,peak,-41.0527718,-71.8064935,,
Cerro Tres Hermanos,peak,-40.9979741,-71.8625297,,
Cerro Media Luna,peak,-41.0106004,-71.8740397,,
Cerro Pirén Huincul,peak,-40.9701952,-71.8401392,,
Cerro Los Escalones,peak,-40.9410899,-71.8571381,,
Cerro Pirita,peak,-40.9257878,-71.8501813,,
Cerro Ceniza,peak,-40.8231802,-71.8930109,,
Cerro Bailey Willis Antiguo,peak,-40.8882938,-71.8500097,,
Pico Argentino,peak,-41.1604601,-71.8780821,,
Cerro Volcánico Este,peak,-41.2734039,-71.8367779,,
Hito VIII-8 B,boundary_stone,-41.2501326,-71.8510339,,
Cerro Cap,peak,-41.5750149,-71.8173102,,
Cerro Largo Nevado,peak,-41.3997993,-71.8658718,,
Cerro Aguirre,peak,-41.4628899,-71.8423408,,
Museo de la Facultad de Astronomía y Geofísica,museum,-34.908339,-57.9331099,,La Plata
Hosteria El Condado,hotel,-41.1638266,-71.41561,,
Salto Fortalecita,attraction,-26.7655383,-54.1814846,,
Hostería Municipal Colonial,hotel,-24.7222199,-66.1998294,,
Posadas,hotel,-27.3670217,-55.8952216,,Posadas
General José de San Martín,memorial,-34.6491802,-58.7908807,,
Cerro 2011,viewpoint,-32.1822692,-64.4418174,,
Península de Embalsina,viewpoint,-32.1835586,-64.4352299,,
Hotel San Carlos,hotel,-32.1620903,-64.4425684,,
Mirador Villa del Dique,viewpoint,-32.1644925,-64.4313528,,
El Portal de la Villa,hotel,-32.1744101,-64.451912,,
Cerro de los Enamorados,viewpoint,-32.1774302,-64.4222366,,
Velo de la Novia,viewpoint,-32.1776467,-64.4192946,,
Julio Argentino Roca,memorial,-34.6103333,-58.3748716,,
Villa de Anita,hotel,-31.695538,-64.4106912,,
Amérian Mendoza,hotel,-32.8923731,-68.8487137,,
Termas La Aguadita,attraction,-28.0306011,-67.6659257,,
Cerro Pabellón Chico,peak,-28.0960727,-68.2715116,,
Cerro de la Salamanca,peak,-28.0112028,-68.4139118,,
Morro Amarillo,peak,-28.1734353,-67.928972,,
Morro Grande,peak,-28.2342807,-67.9035745,,
Mirador de los Cóndores,viewpoint,-22.7988341,-65.2102302,,
Milmahuasi Hostel,hostel,-22.7917896,-65.2174501,,
Abra de la Cruz,saddle,-22.664347,-65.274059,,
Abra de Dos Lagunas,saddle,-22.7346293,-65.2993759,,
Juan Bautista de la Salle,memorial,-34.5984272,-58.3918138,,
Bernardo de Irigoyen,memorial,-34.5985619,-58.3927969,,
Cornelio Saavedra,memorial,-34.5997437,-58.3926621,,
Rodriguez Peña,memorial,-34.597354,-58.3929668,,
Hotel Plaza,hotel,-31.6533531,-63.8992897,,
Atardecer en el Horizonte,viewpoint,-35.033083,-57.5218223,,
Cerro Morado,peak,-22.9183971,-65.187465,,
Cerro Fraile,peak,-22.9700807,-65.2011216,,
Cerro Pelado,peak,-22.8374739,-65.1501377,,
Abra Durazno,saddle,-22.9556277,-65.1959391,,
Cerro Isculla,peak,-22.8440596,-65.0134996,,
Cerro Laguna Verde,peak,-22.7234759,-65.2917369,,
Abra de Astilleros,saddle,-22.7966283,-64.9396021,,
Abra Cruz?,saddle,-22.9212408,-65.2536345,,
Cumbre de Órgano,peak,-22.7285398,-64.994081,,
Abra Onda,saddle,-22.7371052,-65.0222077,,
Monumento Canto al Trabajo,artwork,-34.6177688,-58.3691116,,
Cerro Fundición,peak,-22.4499123,-65.1890903,,
Cerro Potrero,peak,-22.3460539,-65.2651286,,
Abra de Lajas,saddle,-22.3361802,-65.2554455,,
Abra del Cóndor,saddle,-22.3978576,-65.2837602,,
Cordón de Los Cinco Picachos,peak,-22.6562792,-64.723989,,
Monumento al General Juan Gualberto Gregorio de las Heras,monument,-34.9269111,-58.9467804,,
CPC,information,-31.3612221,-64.2046414,,
Hito I-XII,boundary_stone,-53.4107662,-68.6064968,,
Ex Cárcel Barrio San Martín,attraction,-31.3909268,-64.1977786,,
Hito I-XIII,boundary_stone,-53.549158,-68.6066486,,
Hito I-XIV,boundary_stone,-53.609599,-68.6067611,,
Hito I-V,boundary_stone,-53.7446774,-68.606956,,
Hito I-XVII,boundary_stone,-53.8896943,-68.6071513,,
Piedra Conway,rock,-32.6459676,-70.0500906,,
Cerro Aconcagua,peak,-32.6531487,-70.0119607,,
Refugio,alpine_hut,-32.6544392,-70.0642242,,
Monumento a la madre,monument,-34.9277535,-58.9451452,,
Monumento al amigo,monument,-34.9275358,-58.9451349,,
Hotel Marina,hotel,-34.6407566,-58.5369182,,
Cerro Azul Casa,peak,-22.5024443,-65.3314118,,
Hotel Salta,hotel,-24.7900238,-65.4096108,,
Hotel Victoria Plaza,hotel,-24.7895472,-65.4095796,,
Virrey Toledo,monument,-24.7898599,-65.411026,,
Museo Catedralicio Monseñor Carlos Mariano Pérez,museum,-24.787823,-65.4104762,,
Museo de Arte Contemporáneo,museum,-24.7888285,-65.4095218,,
Oficina de Información Turística,information,-24.7909453,-65.4096895,,
Hotel Regidor,hotel,-24.790104,-65.4097808,,
Hotel Colonial,hotel,-24.7897546,-65.4095797,,Salta
Palmera,tree,-28.4686359,-65.780031,,
Palmera,tree,-28.4686764,-65.7800274,,
Caidos en Malvinas,memorial,-45.8641272,-67.4777119,,
Su Estrella,hotel,-45.9023184,-67.567342,,
Cerro del Nacimiento I,volcano,-27.2810061,-68.5242077,,
Reclus,peak,-27.9182031,-68.9334068,,
Cerro Veladero,peak,-28.0725687,-68.9772968,,
Monumento San Martín,monument,-33.7454857,-61.9687167,,
Baboso,peak,-28.0083016,-68.9099412,,
Gemelos,peak,-27.8567944,-68.909774,,
Pioneros o Peñas Azules,peak,-27.9399098,-68.7475786,,
Antofalla Norte,peak,-25.5526866,-67.9171289,,
Antofalla Sur,peak,-25.5749103,-67.9072484,,
Volcán Antofalla,volcano,-25.5626522,-67.880714,,
Majadita,peak,-30.4200699,-69.780925,,
Mástil de la Plaza General José Arias,monument,-35.0315103,-60.2802755,,Alberti
Monte San Lorenzo o Cochrane,peak,-47.5918352,-72.3110237,,
Camping Valle Verde,camp_site,-43.6987208,-66.4610409,,
Camping Municipal Dique Ameghino,camp_site,-43.6970969,-66.4715566,,
Museo del Fuerte Indepencia,museum,-37.3205389,-59.1308718,,
Información Turística,information,-37.3141235,-59.117362,,
Hotel Libertador,hotel,-37.3243762,-59.1387677,,
"Amaike Hotel, Golf & SPA",hotel,-37.3674055,-59.0942901,,Tandil
"Cabañas ""El Edén""",chalet,-37.3167236,-59.0995208,,
Monumento al Libertador José de San Martín,monument,-37.3326252,-59.1211139,,
Plaza Hotel,hotel,-37.3282843,-59.1381416,,
Hotel Francia,hotel,-37.3123589,-59.1379469,,
Hotel Cristal (1 estrella),hotel,-37.3232768,-59.1384001,,
Punta Pardelas,cape,-42.6161195,-64.2703412,,
Ro-Che-Hill (1 estrella),hotel,-37.3204737,-59.1402917,,
Camping Banco Nacion,camp_site,-37.3666997,-59.1130148,,
Posada de los Pajaros,hotel,-37.378325,-59.1112986,,
Monumento estilo precolombino,artwork,-28.4612509,-65.8105407,,
Hotel Crillón (2 estrellas),hotel,-37.3271823,-59.1386578,,
Hotel Hermitage (2 estrellas),hotel,-37.3352089,-59.1360584,,
Cerro El Centinela,peak,-37.3554731,-59.1719771,,
"Monumento Granitico ""El Centinela""",attraction stone,-37.3549136,-59.1726868,,
La Cartuja Villa Serrana,chalet,-37.3491586,-59.1613601,,
Cabañas Casa Alpina,chalet,-37.3481669,-59.1668792,,
Posada del Pinar,chalet,-37.3455208,-59.1632487,,
Altos del Lago,chalet,-37.3510381,-59.129592,,
"Inti Yaykuna, Cabañas (2 rocas)",chalet,-37.3567267,-59.1368067,,
Cabañas Chacra El Centinela,chalet,-37.3431381,-59.1708952,,
Posada Las Acacias,hostel,-37.3346845,-59.1097035,,
Museo del Carnaval,museum,-29.7243694,-57.1099668,,
"Altos Avenida, Hosteria",guest_house,-37.3190188,-59.1338869,,
"Lo de Olga Gandolfi, Hosteria (2 estrellas)",guest_house,-37.3227132,-59.1421357,,
"Kurache, Alojamiento Ecológico",guest_house,-37.3433279,-59.1925846,,
El Mástil,monument,-30.9251654,-64.4852227,,
Información Turística,information,-30.9370337,-64.4934162,,
Solar En La Sierra,hotel,-37.3267039,-59.1454854,,
Aires de Tandil,hotel,-37.3270113,-59.142064,,
Hotel El pasajero (2 estrellas),hotel,-37.3243549,-59.137778,,
Los Cedros Apart Hotel 3 estrellas,hotel,-37.3389017,-59.131525,,
Carahue Apart Hotel,hotel,-37.3380428,-59.1286828,,
Piedra Libre Apart Tandil,hotel,-37.3342262,-59.1283848,,
Cerro del Libertador,peak,-37.3331237,-59.1192901,,
Apart Hotel del Cerrito,hotel,-37.3335328,-59.1168461,,
Hostería Casa Grande,hotel,-37.3380585,-59.1227436,,
Oficina de Turismo,information,-31.0932009,-64.4862547,,
Hotel Mirador 1 estrella,hotel,-37.3202284,-59.1177633,,
Hotal de la Sierra del Tandil,hotel,-37.3318679,-59.1274084,,
Posada la Protegida Hosteria (3estrellas),hotel,-37.3701957,-59.1144282,,
Hosteria Ave Maria,hotel,-37.362628,-59.1926354,,
Hotel Roma,hotel,-37.3271883,-59.1327453,,Tandil
Hotel Turista 1 estrella,hotel,-37.3345377,-59.1367633,,
Hotel Roberto Galan,hotel,-37.3211648,-59.1421406,,
Hotel Mirasierras,hotel,-37.3209655,-59.1499499,,
"Hotel ""El Paraiso""",hotel,-37.3308735,-59.0774817,,Tandil
Hostería Piedrabuena,hotel,-37.3123857,-59.1159732,,
Hosteria Jazmines en la Sierra,hotel,-37.3378096,-59.1313042,,
"Piedras del Lago, Hosteria",hotel,-37.3403798,-59.1314469,,
"Lo de Mer, Hostel",hostel,-37.3287149,-59.1349732,,
"La Quilpara, Casa de Campo",guest_house,-37.3383279,-59.0599954,,
"Casa Chango, Hostel",hostel,-37.3320625,-59.1357486,,
Hotel Kaiku,guest_house,-37.3222209,-59.1335667,,
Hotel Monza,hotel,-37.3328254,-59.1303635,,
Rocas Verdes,chalet,-37.3531825,-59.1424205,,
Hostel Serrano,hostel,-37.3132791,-59.1372607,,
"Corazón de las Sierras, cabañas 4 rocas",chalet,-37.338971,-59.1169339,,
"Cabañas, El Molino, 4 rocas",chalet,-37.3660684,-59.1189931,,
Cerro El Alfarcito,peak,-22.7556773,-65.0587228,,
"De Leche y Miel, Cabañas",chalet,-37.315159,-59.0823459,,
"Jardín Serrano, Cabañas 3 Rocas",chalet,-37.3621248,-59.1166593,,
"Cabañas La Candelaria, 3 rocas",chalet,-37.3617793,-59.1161666,,
"Cabañas La Escondida, 4 rocas",chalet,-37.368689,-59.1200523,,
Fuente de Alegría,chalet,-37.3417407,-59.175338,,
Ruca Haian Cabañas,chalet,-37.3356433,-59.175142,,
Hotel Risco Plateado Golf & Resort,hotel,-35.4616112,-69.5964483,,
Oficina de turismo,information,-22.7916941,-65.2168768,,
"Chacra Bliss, Hosteria",guest_house,-37.3501185,-59.1902163,,
Viñas del Rosario Hotel Boutique,hotel,-37.324414,-59.1323722,,
"Brisas Serranas, Cabañas & Spa",chalet,-37.3335634,-59.0841202,,
"Almacén de Sueños, Cabañas 3 rocas",chalet,-37.3415522,-59.1132611,,
"Amanecer en Las Piedras, Cabañas 3 rocas",chalet,-37.36406,-59.1144818,,
Cabañas La Casa de Campo,chalet,-37.3692103,-59.1247708,,
Cabañas Chacay,chalet,-37.3499132,-59.1648049,,
Posta Natural,chalet,-37.3357616,-59.1749447,,
"Las Marias, Cabañas 3 rocas",chalet,-37.3659789,-59.1189884,,
"Las Pircas, Cabañas 3 rocas",chalet,-37.3356734,-59.0871711,,
"Las Tinajas, Cabañas 3 rocas",chalet,-37.3314559,-59.0746557,,
"Loma Bonita, Cabañas 3 rocas",chalet,-37.3646024,-59.1162102,,
"Mi Descanso, Cabañas 3 rocas",chalet,-37.3172858,-59.0811921,,tandil
"Mirador de Las Sierras, Cabañas 3 rocas",chalet,-37.3682259,-59.1149053,,
"Posada del Tigre, Cabañas 3 rocas",chalet,-37.3693214,-59.1163215,,
"Refugio del Angel, Cabañas 3 rocas",chalet,-37.3364386,-59.187077,,
"Rincon del Abra, Cabañas 3 rocas",chalet,-37.3378545,-59.0614771,,
"Altos del Bierzo, Cabañas 2 rocas",chalet,-37.3452106,-59.1773805,,
"Don Adolfo, Cabañas 2 rocas",chalet,-37.3571125,-59.1256051,,
"La Cumbrecita II, 2 rocas",chalet,-37.3636082,-59.1140042,,
"La Cumbrecita, Cabañas 2 rocas",chalet,-37.3490743,-59.1359036,,
Posada del Viento,chalet,-37.3665336,-59.1188145,,
"Valle del Baztan, Cabañas",chalet,-37.3662502,-59.1166649,,
Residencial Hernandarias,hotel,-27.4468413,-58.9954582,,
Parador,picnic_site,-31.8124497,-64.9539859,,
Información Turística,information,-31.7292717,-65.0049902,,
El Rancho de Popy (Base de Campamento),camp_site,-37.356016,-59.0577982,,Tandil
Centanario,hotel,-36.8957426,-60.3210754,,
Hostería Lo de Titi,hotel,-37.3370057,-59.1221915,,
Museo Municipal de Bellas Artes,museum,-37.3303606,-59.1373052,,Tandil
Cabañas Las Dinas Entresierras,chalet,-37.366351,-59.1330347,,
"Casaparque, Hospedaje",guest_house,-37.3357653,-59.1381963,,
Museo de Ciencias Naturales,museum,-37.3250547,-59.1409221,,
Abra del Cóndor,saddle,-22.8875727,-65.2499296,,
Abra Colorada,saddle,-22.8824813,-65.2399723,,
Cabañas La Matrera,chalet,-37.3196678,-59.091016,,
Bosque de Arrayanes,information,-41.0546037,-71.5444697,,
Llao Llao,peak,-41.046985,-71.553962,,
Parque Lítico La Movediza,attraction,-37.3078711,-59.1685165,,
Lobería Pirámides,attraction,-42.5845846,-64.3085767,,
Museo de Arte Religioso,museum,-37.3297439,-59.1361115,,
Abra Chachacoma?,saddle,-22.8821514,-65.1794346,,
Gran Hotel,hotel,-38.8789224,-62.0786351,,
Cumbre,hotel,-24.7968642,-65.4142748,,
La Toscana,chalet,-37.3612606,-59.1150898,,
Mirador lago Guillermo y glaciar Upsala,viewpoint,-49.904579,-73.1817916,,
Monumento a Simón Bolívar,memorial,-34.6177189,-58.4327816,,
Mirador Chile Chico,viewpoint,-46.5370129,-71.733178,,
Antigua Patagonia,hotel,-46.551317,-71.5985501,,
Mirador Uendeunk,viewpoint,-46.5514558,-71.627258,,
El Tourista,guest_house,-46.5892519,-70.9250049,,
Lago Burmeister,camp_site,-47.9508016,-72.120368,,
Mirador Cascada Los Cántaros,viewpoint,-41.0130128,-71.8219255,,
Monumento a Ceferino Namuncurá,monument,-41.0503191,-62.8341662,,
San Salvador,attraction  monument,-38.0390491,-57.5185228,,
Monumento a los caídos en Malvinas,monument,-31.6492936,-60.7091672,,
Monumento a San Martín,monument,-31.6465976,-60.7099653,,
Palomar,attraction,-31.6467428,-60.7040367,,
Juan Pablo II,memorial,-27.3617753,-55.8860474,,
Ventisquero Negro,viewpoint,-41.2023383,-71.8275806,,
Tierra nativa,hotel,-40.1601462,-71.3497102,,
Mirador de Ballenas,viewpoint,-42.61823,-64.2698828,,
Complejo La Aventura,hotel,-27.3553718,-55.9253686,,Posadas
Cerro Palta Loma,peak,-22.8415438,-65.2673622,,
Cerro Laguna Blanca,peak,-22.9860419,-65.2217088,,
Cerro San Gregorio,peak,-22.6623457,-65.0798693,,
Cerro Bolsón,peak,-28.1518326,-68.065331,,
Abra Vicuñayoc (4240m),saddle,-22.7818699,-65.4157032,,
Eco Camping Tsonek,camp_site,-48.4579682,-72.5607061,,
CONAF,information,-48.4675137,-72.5599771,,
Campanario,guest_house,-48.4669396,-72.5600773,,
Información Turística,information,-48.4682164,-72.559699,,
Fabiana,guest_house,-48.4691441,-72.559922,,
Museo regional,museum,-31.6501348,-60.3770148,,Villa Urquiza
Mirador Avenida Kolping,viewpoint,-27.35864,-55.9494494,,
Cerro Mesón,peak,-22.7814295,-65.2692601,,
Cerro Varonero,peak,-22.6712772,-65.3156536,,
Hotel Santoro,hotel,-34.9297717,-58.9466921,Buenos Aires,General Las Heras
Juana Sin Techo,artwork,-27.4409464,-58.9892392,,
Qwak,artwork,-27.4393762,-58.9823285,,
Flor Indígena,artwork,-27.4448416,-58.9794904,,
El Colono,artwork,-27.447234,-58.9821604,,
Chaco naciente,artwork,-27.4385306,-58.9865729,,
Casa Mía,hotel,-27.453091,-58.9907431,,
Hotel Alfil,hotel,-27.4541896,-58.9914961,,
Hotel Alvear,hotel,-27.4533274,-58.9912977,,
Hotel Marconi,hotel,-27.4497922,-58.9912399,,Resistencia
Hotel ATECH Sahara,hotel,-27.4508113,-58.9841185,,
Museo de Medios de Comunicación Raúl Berneri,museum,-27.4508335,-58.9829732,,Resistencia
Museo del Pueblo,museum,-27.4451891,-58.9849373,,
Mariscal Francisco Solano López,artwork,-27.45111,-58.977777,,
España,hotel,-40.7294588,-64.9428568,,
Iberia,hotel,-40.7306787,-64.9429997,,San Antonio Oeste
Ozieri,hotel,-40.7321818,-64.9411008,,San Antonio Oeste
Petit,hotel,-40.7324835,-64.9676015,,San Antonio Oeste
Vasquito,hotel,-40.7281896,-64.9372537,,
Hostería Amancay,hotel,-32.3467852,-65.0057428,,
Hotel Colonial,hotel,-32.3444295,-64.9956015,,
Hotel Contilo,hotel,-32.3440821,-65.0105555,San Luis,Villa de Merlo
Hotel El Hornero,hotel,-32.3465623,-64.9947534,,
Hotel Mirasierras,hotel,-32.3465172,-65.0093565,San Luis,Villa de Merlo
Hotel Valle del Sol,hotel,-32.3477784,-65.0108727,,
Hotel Villa de Merlo,hotel,-32.3445837,-65.0085475,San Luis,Villa de Merlo
La Barraca,hotel,-32.3394531,-64.989744,,
Planetario Hotel,hotel,-32.3471332,-64.9996952,,
Lobería Pirámides,viewpoint,-42.5847427,-64.3093538,,
Abra Fundición,saddle,-22.4374907,-65.1694461,,
Cerro Potrerillos,peak,-22.3359385,-65.1552876,,
Abra Blanca,saddle,-22.3470492,-65.2072768,,
Abra Tuc Tuca,saddle,-22.3815693,-65.1995671,,
Cerro Tuc Tuca,peak,-22.4498937,-65.2230696,,
Cerro Poza Brava,peak,-22.4245071,-65.1669364,,
Cerro Morado,peak,-22.40375,-65.1573062,,
Cerro Ciénaga,peak,-22.4113439,-65.0690894,,
Cerro Bayo,peak,-22.5499998,-65.0663011,,
Cerro Abra Llana,peak,-22.4765525,-65.2584319,,
Abra de Lizoite,saddle,-22.2183788,-65.2262055,,
Diamante,hotel,-27.4502382,-58.9939868,,Resistencia
Cerro Overo,peak,-22.2598776,-65.1096475,,
Abra Patahuasi,saddle,-22.2806825,-65.1218334,,
Cerro Peña Negra,peak,-22.2059957,-65.1358829,,
Cerro Campanario,peak,-22.2169272,-65.1048102,,
Cerro Cajas,peak,-22.2047005,-65.2706444,,
Cerro Mulloc,peak,-22.4669725,-65.5684569,,
Cerro Morado,peak,-22.5537852,-65.584229,,
Cabañas los Robles,hotel,-25.6728735,-54.0429619,,Comandante Andresito
Cerro Campanario,peak,-22.5757441,-65.1742514,,
Abra Casillas,saddle,-22.5874629,-65.3455705,,
Cerro Bayo,peak,-22.5967646,-65.3507488,,
Cerro Antiguo,peak,-22.8558557,-65.3524404,,
Cerro Corral Blanco,peak,-22.8604113,-65.4450195,,
Cerro Leandro,peak,-22.9535383,-65.4529159,,
Cerro Casayoc,peak,-22.9045278,-65.4166915,,
Cerro Aspero,peak,-22.9629677,-65.3297215,,
Cerro Alto de Chorro,peak,-23.130672,-65.0709977,,
Cerro Colorado de Caspalá,peak,-23.2661795,-65.1126552,,
Cerro Toroyo,peak,-22.6397307,-65.2667921,,
Cerro Morada,peak,-22.6497186,-65.3732247,,
Cerro Negro,peak,-22.1470348,-65.1934884,,
Cerro Blanco,peak,-22.4187793,-64.9982879,,
Cerro Cedral,peak,-22.8785037,-64.8656847,,
Cerro Mulular,peak,-22.8637766,-64.8032062,,
Cerro Negro,peak,-23.1304177,-65.3250928,,
Abra de Tres Cruces,saddle,-22.8988015,-65.597123,,
Departamentos Luminar,guest_house,-40.8010291,-65.0749187,,
Casa de la Historia y la Cultura del Bicentenario,museum,-40.8113179,-65.0884755,,Las Grutas
Hito I-XVI,boundary_stone,-53.7998837,-68.6070164,,
Amerian Hotel,hotel,-26.8243345,-65.2019526,,San Miguel de Tucumán
Camping municipal,camp_site,-33.9106348,-61.1064113,,
Club Alianza,camp_site,-33.9159408,-61.1024296,,
Aihuen Parque Hotel,hotel,-38.1304773,-61.7943555,,
Abra Gigante,saddle,-23.0497356,-65.0666034,,
Cerro Blanco,peak,-23.2837293,-64.9754963,,
Atero,hotel,-38.1371606,-61.7958636,,
Abra Ciénaga Negra,saddle,-23.3162527,-64.909796,,
Abra Grande,saddle,-23.4741086,-64.8725627,,
Cerro Corralito,peak,-23.4365831,-64.8973556,,
Estatua de la Virgen María,monument,-33.2961409,-66.2990344,,
El Mastil,attraction,-28.2133897,-65.8725,,
Embarcadero,attraction,-39.5068965,-62.6863025,,
Fortín Mercedes,fort,-39.5250461,-62.6615189,,
Ancona,hotel,-38.9919021,-64.09971,,Río Colorado
Hotel El Gran Sasso,hotel,-38.9928464,-64.1030731,,Río Colorado
Homi,hotel,-38.991348,-64.1069241,,
Cerro El Crestón,peak,-22.7010816,-64.9304824,,
Cerro Morro Alto,peak,-22.651802,-64.8979678,,
Cerro Campamento,peak,-22.4955129,-64.81319,,
Cerro El Pinal,peak,-22.529263,-64.8409057,,
Cerro La Despensa,peak,-24.5404299,-65.2127848,,
Morro de Los Matos,peak,-24.6083433,-65.2701488,,
Cerro Los Cedros,peak,-24.4721747,-65.3509338,,
Cerro Alto Los Sauces,peak,-24.4971491,-65.3459644,,
Cerro Cochucal,peak,-24.4330329,-65.3510022,,
Cerro Chuschayo,peak,-22.7173732,-65.5647016,,
Hotel Provincial,hotel,-31.7389932,-60.5315236,,Paraná
Balneario Municipal,attraction,-30.9820766,-64.4804599,,
Cristo Redentor,monument,-30.9766562,-64.4809022,,
Hostel Retorno,hostel,-42.7724103,-65.0321695,,
Columna ensanchándose en el centro,artwork,-27.4456429,-58.9786157,,
Morro Bola,peak,-24.3832518,-65.4701681,,
Cerro Negro,peak,-24.4162675,-65.6003866,,
Cerro La Tablada,peak,-24.44755,-65.4499843,,
Abra de Rota,saddle,-22.0971329,-65.1900153,,
Cerro Soyono,peak,-22.2917618,-65.2380934,,
Cerro Santa Cruz,peak,-22.1179226,-64.9946122,,
Cerro Peña Orko,peak,-22.0819124,-65.0529294,,
Abra Sepultura,saddle,-22.223164,-64.9714391,,
Cerro Pino Solo,peak,-22.3739598,-64.676851,,
Cerro Tinte,peak,-22.6548139,-67.0140833,,
El Gato Negro,guest_house,-34.3725654,-58.5929537,,
Museo Salesiano Cardenal Cagliero,museum,-40.8104783,-62.9921229,,Viedma
"Museo Tecnológico del Agua y del Suelo ""Ingeniero Osvaldo Casamiquela""",museum,-40.8102609,-62.9921781,,Viedma
Cerro de la Caballada,peak,-40.8111357,-62.9692388,,
Cuevas Maragatas del Barrio del Tambor,cave_entrance,-40.8002598,-62.9875227,,Carmen de Patagones
Cueva Maragata del Casco Histórico,cave_entrance,-40.8033655,-62.985301,,
Torre del Fuerte del Carmen,yes,-40.80233,-62.9846358,,Carmen de Patagones
Reggiani,hotel,-40.7989,-62.97962,,
Cerro Popayan,peak,-24.2788434,-65.3351054,,
Victoria,hotel,-45.8647897,-67.4844426,,Comodoro Rivadavia
Museo Paula Florido,museum,-35.4329282,-60.1704803,,25 de Mayo
Laguna Mulitas,picnic_site,-35.436696,-60.1560205,,
Cerro Barro Negro,peak,-24.3225824,-65.6759107,,
Cerro Nevado General Güemes,peak,-24.3629017,-65.6561899,,
Cerro Portezuelo,peak,-24.2898832,-65.6789234,,
Seaboard Hotel,hotel,-36.686373,-56.6779491,,
El Playa,hotel,-36.7242234,-56.67419,,Mar De Ajó
Franklin Delano Roosevelt,memorial,-34.5756582,-58.4190506,,
Juan Manuel de Rosas,memorial,-34.5753094,-58.4163222,,
Monumento José Gervasio Artigas,artwork  memorial,-34.5819569,-58.3975836,,
Cerro Ceibal,peak,-24.444815,-64.4411182,,
Cerro Sololosta,peak,-32.8652948,-66.000761,,
Abra del Tafi,saddle,-26.8205434,-65.6273318,,
Cerro Cabra Horco,peak,-26.6327295,-65.5365415,,
Abra del Infiernillo,saddle,-26.7403357,-65.7760181,,
Cerro Alto de Rumiarco,peak,-26.7442418,-65.8473077,,
Morro Ñuñorco,peak,-26.8402339,-65.9024371,,
Cerro Pabellón,peak,-26.7777982,-65.6971686,,
Morro del Derrumbe,peak,-26.378601,-64.8727269,,
Mini Camping Amanecer,camp_site,-28.4574562,-65.8435643,,
Museo La Estación,museum,-31.7955588,-58.3123792,,
Abra Chañi,saddle,-24.1641447,-65.7143651,,
Cerro Nevado de Chañi,volcano,-24.0626914,-65.7461965,,
Cerro Purma,peak,-24.2298062,-65.6972604,,
Cerro Tres Mojones,peak,-24.0609809,-65.8398368,,
Camping Ani,camp_site,-26.8149534,-54.9459816,,
Cerro Alto El Tunillar,peak,-24.479614,-65.22909,,
Cerro Pajas Blancas O San Alejo,peak,-24.5763339,-65.4187214,,
Centros de Información Turística,information,-36.6864454,-56.6882412,,
Cerro Rosado,peak,-23.9781647,-65.9406121,,
Museo Domingo Faustino Sarmiento,museum,-34.383019,-58.5768061,,
Carlos Pellegrini,zoo,-26.2496603,-65.5192215,,
Mirador,viewpoint,-25.6216798,-65.6129155,,
Museo de Armas de la Nación,museum,-34.5960316,-58.3771226,,Ciudad Autónoma de Buenos Aires
Museo Americanista,museum,-34.7571716,-58.4035366,,
Garden Stone,hostel,-25.5945051,-54.5712533,,Puerto Iguazú
Monumento al General José de San Martín,attraction  monument,-34.7570973,-58.4026267,,
Mirador Ceferino,viewpoint,-41.0502781,-62.8339839,,
El Oasis,camp_site,-40.769088,-65.037696,,
Cañadon León,hotel,-48.7505383,-70.2530765,,
Antú Cuyen,apartment,-40.8052634,-65.0827457,,
Santa Isabel,apartment,-40.8058788,-65.0821275,,Las Grutas
Ismar,hotel,-45.587489,-69.0671835,,
Turismo,information,-45.5945232,-69.0687509,,
Guer-Aike,chalet,-40.8141415,-65.0951125,,Las Grutas
Los Parrales,chalet,-40.8070084,-65.0873077,,Las Grutas
Mirador Azul,hotel,-40.8117428,-65.0889946,,Las Grutas
Pilmayquén,hotel,-40.8070789,-65.0882208,,Las Grutas
El Pobre Gaucho,hotel,-40.8107044,-65.0906083,,
Ruca Melín,hotel,-40.8167085,-65.0985565,,Las Grutas
Hotel del Río,hotel,-40.8141887,-65.0927358,,
Solana del Mar,hotel,-40.8112414,-65.0885958,,
La Terminal,hotel,-41.6075072,-65.3549833,,
Sierra Grande,hotel,-41.6063026,-65.3538211,,
Hotel Termas La Laja,hotel,-31.343203,-68.4781186,,
Complejo Don Agustín,chalet,-40.8128326,-65.0971298,,Las Grutas
Camping La Leona,camp_site,-49.8096322,-72.0536008,,
La Esperanza,hotel,-51.0302328,-70.7794279,,
Rumbo Sur,hotel,-48.4647645,-72.5617365,,
Mirador Nothofagus,viewpoint,-48.4694009,-72.5552318,,
Esplendor,hotel,-34.5988364,-58.3744004,,
Dazzler Tower Maipú,hotel,-34.5982474,-58.3770268,,Ciudad Autónoma de Buenos Aires
Aguadulce,hotel,-37.3213675,-59.1390004,,
Hostería de La Cascada,hotel,-37.3643946,-59.1073721,,
Parque Tematico,theme_park,-37.3353772,-59.1371405,,
La Madrugada,chalet,-37.3128264,-59.0748819,,Tandil
Valle del Paraíso,chalet,-37.3259316,-59.0633303,,
La Herradura,chalet,-37.3477206,-59.1595271,,
Los Alpes,chalet,-37.3475524,-59.04841,,
Los 5 Hermanos,chalet,-37.3453616,-59.1622597,,
Tandilia,chalet,-37.3722583,-59.1341787,,
Sol de las Sierras,chalet,-37.3455258,-59.1680943,,
Rocas Descanso,chalet,-37.3519427,-59.1686934,,
La Postal de Tandil,chalet,-37.3497881,-59.1621519,,
Puertas del Sol,chalet,-37.323622,-59.0605812,,
Colinas Serranas,chalet,-37.327413,-59.0659922,,
Hadas De La Sierra,chalet,-37.3348676,-59.1773495,,
Cabañas de las Sierras,chalet,-37.3353489,-59.1044559,,
Entre Cerros,chalet,-37.3458502,-59.1645996,,
La Payana,chalet,-37.3445276,-59.1760136,,
Los Cerezos,chalet,-37.3452183,-59.1705727,,
Manantial de los Amores,chalet,-37.3434441,-59.1141079,,
Hotel de Campo Don Liborio,hotel,-37.3547576,-59.029856,,
Mirador La Bandera,viewpoint,-48.4657103,-72.5487679,,
Paraná Viejo,camp_site,-32.8711706,-60.666031,,
Rancho de Mabel,picnic_site,-32.8725303,-60.6654077,,
Baños del Azufre,picnic_site,-35.2936879,-70.5162296,,
Bello Hostel Buenos Aires,hostel,-34.5956842,-58.4971082,,Ciudad Autónoma de Buenos Aires
Cabanas,chalet,-48.4811652,-72.5771788,,
Ricanor,camp_site,-49.2151921,-72.9575391,,
El Relincho,camp_site,-49.325783,-72.8901666,,El Chiltén
Hostel Kooch,hostel,-50.337543,-72.2589259,,
Linda Vista,guest_house,-50.3377099,-72.2744299,,
Calafate Parque,hotel,-50.3374412,-72.2708308,,
El Quijote,guest_house,-50.3370185,-72.2658621,,
Patagonia Queen,motel,-50.3381258,-72.2742493,,
Lar Aike,hotel,-50.3413338,-72.2888823,,
El Galpon Del Glaciar,hotel,-50.3476275,-72.5303837,,
Velo De Novia,viewpoint,-50.4753056,-72.9810707,,
Vieja Usina Cacheuta,ruins,-33.0440215,-69.0983384,,
Viejo Hotel Cacheuta,ruins,-33.0444802,-69.0998887,,
Hotel Palace Rondeau,hotel,-34.6325065,-58.3903236,,
Hotel Guadalupe,hotel,-34.6324579,-58.3907689,,
Parque Tau,camp_site,-32.6279929,-62.7035561,,
Hotel Italia,hotel,-32.6314024,-62.6939929,,Bell Ville
Zona de Picnic,picnic_site,-32.627105,-62.6984485,,
Gran Hotel Bell Ville,hotel,-32.6313121,-62.6930327,,Bell Ville
Momentos,motel,-32.6394842,-62.6851524,,
PIRAMIDE HILARIO ASCASUBI,memorial,-32.6209635,-62.6859106,,
Kiam-Te,hotel,-33.0114208,-69.1202957,,
Camping El Pelicano,camp_site,-32.6919575,-64.7155834,,
Yapeyu campsite,camp_site,-29.4768548,-56.8177956,,
El Paraíso,chalet,-29.4675984,-56.8101352,,
Monumento a la Paz,monument,-29.6527171,-57.0800137,,
Orfeo Suites,hotel,-31.3687081,-64.2200576,,
Hotel Moreno,hotel,-38.093469,-62.2189332,,Tornquist
Hotel Central,hotel,-38.100036,-62.2262787,,Tornquist
Hotel San José,hotel,-38.099765,-62.2270809,,Tornquist
Samay Wasi,hotel,-24.2329492,-64.870415,,
Via 9,hotel,-32.7204582,-61.9124985,,
Municipalidad,monument,-32.7285156,-61.9147855,,
Monumento al Comandante Tomás Espora,monument,-34.7755832,-58.3971568,,
13 de Julio,hotel,-37.9959922,-57.5462706,,Mar del Plata
15 de Mayo,hotel,-37.9961913,-57.5475013,,
Cerro del Bolsón,peak,-27.2131033,-66.0938132,,
Mayorazgo de Anillaco,ruins,-27.911353,-67.6149524,,
La Casa de Graciela,hostel,-27.6907153,-67.6146364,,
Camping Juan Bautista,camp_site,-32.5897763,-69.3476696,,
